Store Number,Dba,Store Name,Address,City,State,Zip Code,Phone Number,Fax Number,Email Address,Website Address,Latitude,Longitude,Geo Accuracy,Country,Country Code,County
"1","PostalAnnex+","The Marketplace at University City","3268 Governor Dr","San Diego","CA","92122-2902","(858) 457-1072","(858) 450-3680","pa1@postalannex.com","http://www.postalannex.com/1","32.8523393","-117.2151737","STREET_ADDRESS: ROOFTOP","United States","US","San Diego County"
"2","PostalAnnex+","Rancho Penasquitos Towne Centre","13223 Black Mountain Rd Ste 1","San Diego","CA","92129-2699","(858) 484-8200","(858) 484-8383","pa2@postalannex.com","http://www.postalannex.com/2","32.9574912","-117.1252757","SUBPREMISE: ROOFTOP","United States","US","San Diego County"
"3","PostalAnnex+","Terranova Plaza","374 E H St Ste A","Chula Vista","CA","91910-7496","(619) 585-7400","(619) 585-7481","pa3@postalannex.com","http://www.postalannex.com/3","32.6394919","-117.0497362","SUBPREMISE: ROOFTOP","United States","US","San Diego County"
"4","PostalAnnex+","Fletcher Hills Town & Country","2840 Fletcher Pkwy","El Cajon","CA","92020-2111","(619) 589-6133","(619) 589-9032","pa4@postalannex.com","http://www.postalannex.com/4","32.8013423","-117.0044727","STREET_ADDRESS: ROOFTOP","United States","US","San Diego County"
"6","PostalAnnex+","Southland Plaza","555 Saturn Blvd Ste B","San Diego","CA","92154-4798","(619) 424-9800","(619) 424-5020","pa6@postalannex.com","http://www.postalannex.com/6","32.5859987","-117.0909417","SUBPREMISE: ROOFTOP","United States","US","San Diego County"
"7","PostalAnnex+","Hillcrest Colonade","1286 University Ave","San Diego","CA","92103-3312","(619) 298-7155","(619) 298-7932","pa7@postalannex.com","http://www.postalannex.com/7","32.7492669","-117.1515474","STREET_ADDRESS: ROOFTOP","United States","US","San Diego County"
"8","Parcel Plus","","43 Randolph Rd","Colesville","MD","20904-1209","(301) 384-4300","(301) 384-3757","pp8@parcelplus.com","http://www.parcelplus.com/8","39.0763985","-77.0040715","STREET_ADDRESS: ROOFTOP","United States","US","Montgomery County"
"8","PostalAnnex+","Shadowridge Center","770 Sycamore Ave Ste 122","Vista","CA","92083-7904","(760) 598-0201","(760) 598-0683","pa8@postalannex.com","http://www.postalannex.com/8","33.1634439","-117.2196077","SUBPREMISE: ROOFTOP","United States","US","San Diego County"
"9","PostalAnnex+","Sprouts Farmer's Market","1345 Encinitas Blvd","Encinitas","CA","92024","(760) 944-9494","(760) 944-9496","pa9@postalannex.com","http://www.postalannex.com/9","33.0446917","-117.2606494","STREET_ADDRESS: ROOFTOP","United States","US","San Diego County"
"10","PostalAnnex+","Lomas Santa Fe Plaza - Von's Center","991 Lomas Santa Fe Dr Ste C","Solana Beach","CA","92075-2141","(858) 259-6020","(858) 259-6023","pa10@postalannex.com","http://www.postalannex.com/10","32.9938413","-117.2517297","SUBPREMISE: ROOFTOP","United States","US","San Diego County"
"11","PostalAnnex+","Von's Town Center","11956 Bernardo Plaza Dr","San Diego","CA","92128-2538","(858) 485-9498","(858) 485-9521","pa11@postalannex.com","http://www.postalannex.com/11","33.021535","-117.0729776","STREET_ADDRESS: ROOFTOP","United States","US","San Diego County"
"12","PostalAnnex+","","7668 El Camino Real Ste 104","Carlsbad","CA","92009-7932","(760) 944-5666","(760) 944-5668","pa12@postalannex.com","http://www.postalannex.com/12","33.0857895","-117.2676497","SUBPREMISE: ROOFTOP","United States","US","San Diego County"
"13","PostalAnnex+","Super Saver Center","416 W San Ysidro Blvd Ste L","San Ysidro","CA","92173-2450","(619) 428-5924","(619) 428-8641","pa13@postalannex.com","http://www.postalannex.com/13","32.5549708","-117.0523457","SUBPREMISE: ROOFTOP","United States","US","San Diego County"
"14","Parcel Plus","Mapledale Plaza Shopping Center","5868 Mapledale Plaza","Woodbridge","VA","22193-4535","(703) 491-7306","(703) 491-5935","pp14@parcelplus.com","http://www.parcelplus.com/14","38.660773","-77.368195","STREET_ADDRESS: ROOFTOP","United States","US","Prince William County"
"14","PostalAnnex+","Best Buy Shopping Center","9640 Mission Gorge Rd Ste B","Santee","CA","92071-3854","(619) 562-8654","(619) 562-2358","pa14@postalannex.com","http://www.postalannex.com/14","32.839372","-116.986986","SUBPREMISE: ROOFTOP","United States","US","San Diego County"
"15","PostalAnnex+","Town & Country","1637 E Valley Pkwy","Escondido","CA","92027-2408","(760) 747-7828","(760) 747-7845","pa15@postalannex.com","http://www.postalannex.com/15","33.1331632","-117.0576888","STREET_ADDRESS: ROOFTOP","United States","US","San Diego County"
"16","PostalAnnex+","Midway Towne Center","3960 W Point Loma Blvd Ste H","San Diego","CA","92110-5643","(619) 224-9930","(619) 224-9941","pa16@postalannex.com","http://www.postalannex.com/16","32.7552439","-117.2223152","SUBPREMISE: ROOFTOP","United States","US","San Diego County"
"17","PostalAnnex+","Rancho Del Oro Town Center North","825 College Blvd Ste 102","Oceanside","CA","92057-6263","(760) 414-1090","(760) 414-1093","pa17@postalannex.com","http://www.postalannex.com/17","33.2404577","-117.2939513","SUBPREMISE: ROOFTOP","United States","US","San Diego County"
"19","Parcel Plus","","4725 Dorsey Hall Dr Ste A","Ellicott City","MD","21042-7713","(410) 740-0900","(410) 740-0902","pp19@parcelplus.com","http://www.parcelplus.com/19","39.2429835","-76.842372","SUBPREMISE: ROOFTOP","United States","US","Howard County"
"20","PostalAnnex+","Von's Shopping Center","7514 Girard Ave Ste 1","La Jolla","CA","92037-5199","(858) 456-3935","(858) 456-0810","pa20@postalannex.com","http://www.postalannex.com/20","32.8407253","-117.2729619","SUBPREMISE: ROOFTOP","United States","US","San Diego County"
"21","Parcel Plus","","1390 Chain Bridge Rd","McLean","VA","22101-3904","(703) 883-2983","(703) 883-1180","pp21@parcelplus.com","http://www.parcelplus.com/21","38.9363693","-77.1766213","STREET_ADDRESS: ROOFTOP","United States","US","Fairfax County"
"22","PostalAnnex+","Mira Mesa Target Center","10606 Camino Ruiz Ste 8","San Diego","CA","92126-3263","(858) 549-9989","(858) 566-4224","pa22@postalannex.com","http://www.postalannex.com/22","32.9101399","-117.1448286","SUBPREMISE: ROOFTOP","United States","US","San Diego County"
"23","PostalAnnex+","","13446 Poway Rd","Poway","CA","92064-4714","(858) 486-1880","(858) 486-2329","pa23@postalannex.com","http://www.postalannex.com/23","32.9576861","-117.0389765","STREET_ADDRESS: ROOFTOP","United States","US","San Diego County"
"24","Parcel Plus","","7481 Huntsman Blvd","Springfield","VA","22153-1648","(703) 866-9466","(703) 866-9468","pp24@parcelplus.com","http://www.parcelplus.com/24","38.752965","-77.266024","STREET_ADDRESS: ROOFTOP","United States","US","Fairfax County"
"25","PostalAnnex+","Fallbrook Mercantile","855 South Main Ave Ste K","Fallbrook","CA","92028-3348","(760) 728-4345","(760) 728-1982","pa25@postalannex.com","http://www.postalannex.com/25","33.3756537","-117.2529247","SUBPREMISE: ROOFTOP","United States","US","San Diego County"
"28","PostalAnnex+","Twin Peak Plaza","14781 Pomerado Rd","Poway","CA","92064-2802","(858) 668-0777","(858) 668-0808","pa28@postalannex.com","http://www.postalannex.com/28","32.9825861","-117.0621285","STREET_ADDRESS: ROOFTOP","United States","US","San Diego County"
"29","PostalAnnex+","La Mesa Springs Center","8030 La Mesa Blvd","La Mesa","CA","91942-0335","(619) 461-8977","(619) 461-8975","pa29@postalannex.com","http://www.postalannex.com/29","32.7647156","-117.0240174","STREET_ADDRESS: ROOFTOP","United States","US","San Diego County"
"33","PostalAnnex+","","2425 Channing Way Ste B","Berkeley","CA","94704-2260","(510) 548-4680","(510) 548-4686","pa33@postalannex.com","http://www.postalannex.com/33","37.8670775","-122.2594907","SUBPREMISE: ROOFTOP","United States","US","Alameda County"
"34","PostalAnnex+","Mission Gorge Shopping Center","6549 Mission Gorge Rd","San Diego","CA","92120-2306","(619) 284-4006","(619) 284-6946","pa34@postalannex.com","http://www.postalannex.com/34","32.7919948","-117.0965813","STREET_ADDRESS: ROOFTOP","United States","US","San Diego County"
"35","PostalAnnex+","Plaza Las Palmas","970 W Valley Pkwy","Escondido","CA","92025-2554","(760) 480-9140","(760) 480-8063","pa35@postalannex.com","http://www.postalannex.com/35","33.1180674","-117.0961021","STREET_ADDRESS: ROOFTOP","United States","US","San Diego County"
"38","PostalAnnex+","","553 N Pacific Coast Hwy Ste B","Redondo Beach","CA","90277-2105","(310) 376-1011","(310) 376-2761","pa38@postalannex.com","http://www.postalannex.com/38","33.8511228","-118.3898031","SUBPREMISE: ROOFTOP","United States","US","Los Angeles County"
"42","PostalAnnex+","Albertson's Town Center","32295 Mission Trail Ste R8","Lake Elsinore","CA","92530-2305","(951) 674-3189","(951) 245-1202","pa42@postalannex.com","http://www.postalannex.com/42","33.6525648","-117.2972639","PREMISE: ROOFTOP","United States","US","Riverside County"
"43","PostalAnnex+","Genesee Plaza","4203 Genesee Ave Ste 103","San Diego","CA","92117-4950","(858) 541-1882","(858) 541-1892","pa43@postalannex.com","http://www.postalannex.com/43","32.821017","-117.180944","SUBPREMISE: ROOFTOP","United States","US","San Diego County"
"44","PostalAnnex+","Oaktree Plaza","17602 17th St Ste 102","Tustin","CA","92780-7915","(714) 838-9566","(714) 838-4660","pa44@postalannex.com","http://www.postalannex.com/44","33.7589075","-117.8248494","SUBPREMISE: ROOFTOP","United States","US","Orange County"
"47","PostalAnnex+","Flamingo/Jones Center","6130 W Flamingo Rd","Las Vegas","NV","89103-2280","(702) 873-8005","(702) 873-8423","pa47@postalannex.com","http://www.postalannex.com/47","36.1155114","-115.2260597","STREET_ADDRESS: ROOFTOP","United States","US","Clark County"
"48","Parcel Plus","","333 Maple Ave E","Vienna","VA","22180-4717","(703) 255-1448","(703) 255-1767","pp48@parcelplus.com","http://www.parcelplus.com/48","38.9062106","-77.2593923","STREET_ADDRESS: RANGE_INTERPOLATED","United States","US","Fairfax County"
"49","Parcel Plus","","3509 Connecticut Ave NW","Washington","DC","20008-2400","(202) 244-6669","(202) 244-6810","pp49@parcelplus.com","http://www.parcelplus.com/49","38.9359813","-77.0581511","STREET_ADDRESS: ROOFTOP","United States","US",""
"50","PostalAnnex+","Shelter Island Village","2907 Shelter Island Dr Ste 105","San Diego","CA","92106-2797","(619) 222-1664","(619) 222-1797","pa50@postalannex.com","http://www.postalannex.com/50","32.7218283","-117.2304614","SUBPREMISE: ROOFTOP","United States","US","San Diego County"
"54","PostalAnnex+","Nexus Center","3410 La Sierra Ave Ste F","Riverside","CA","92503-5205","(951) 352-2105","(951) 352-2170","pa54@postalannex.com","http://www.postalannex.com/54","33.8967312","-117.4726677","SUBPREMISE: ROOFTOP","United States","US","Riverside County"
"56","PostalAnnex+","","2913 El Camino Real","Tustin","CA","92782-8909","(714) 832-9212","(714) 832-2441","pa56@postalannex.com","http://www.postalannex.com/56","33.7245901","-117.7930792","STREET_ADDRESS: ROOFTOP","United States","US","Orange County"
"62","PostalAnnex+","","9984 Scripps Ranch Blvd","San Diego","CA","92131-1899","(858) 566-1288","(858) 566-1230","pa62@postalannex.com","http://www.postalannex.com/62","32.9027002","-117.0995202","STREET_ADDRESS: ROOFTOP","United States","US","San Diego County"
"64","PostalAnnex+","Sunnyside Market Place","12042 SE Sunnyside Rd","Clackamas","OR","97015-8382","(503) 698-8114","(503) 698-8126","pa64@postalannex.com","http://www.postalannex.com/64","45.4279944","-122.5395798","STREET_ADDRESS: ROOFTOP","United States","US","Clackamas County"
"65","PostalAnnex+","Sycamore Plaza","22365 El Toro Rd","Lake Forest","CA","92630-5053","(949) 454-2410","(949) 454-2412","pa65@postalannex.com","http://www.postalannex.com/65","33.6388651","-117.6804555","STREET_ADDRESS: ROOFTOP","United States","US","Orange County"
"67","Parcel Plus","","8500 Henry Ave Ste 45","Philadelphia","PA","19128-2111","(215) 483-9405","(215) 483-9407","pp67@parcelplus.com","http://www.parcelplus.com/67","40.0631436","-75.2357443","SUBPREMISE: ROOFTOP","United States","US","Philadelphia County"
"71","PostalAnnex+","Uptown Shopping Center","25 NW 23rd Pl Ste 6","Portland","OR","97210-5580","(503) 228-8393","(503) 228-8397","pa71@postalannex.com","http://www.postalannex.com/71","45.5241306","-122.7003137","SUBPREMISE: ROOFTOP","United States","US","Multnomah County"
"76","Parcel Plus","","267 Kentlands Blvd","Gaithersburg","MD","20878-5446","(301) 990-1070","(301) 990-1141","pp76@parcelplus.com","http://www.parcelplus.com/76","39.1243115","-77.2390545","STREET_ADDRESS: ROOFTOP","United States","US","Montgomery County"
"77","PostalAnnex+","","2621 Green River Rd Ste 105","Corona","CA","92882-7454","(951) 272-1479","(951) 272-1549","pa77@postalannex.com","http://www.postalannex.com/77","33.8708237","-117.6213445","SUBPREMISE: ROOFTOP","United States","US","Riverside County"
"79","PostalAnnex+","","6444 E Spring St","Long Beach","CA","90815-1553","(562) 270-5644","(562) 982-1180","pa79@postalannex.com","http://www.postalannex.com/79","33.8096481","-118.106315","STREET_ADDRESS: ROOFTOP","United States","US","Los Angeles County"
"82","PostalAnnex+","","2498 Roll Dr","San Diego","CA","92154-7279","(619) 661-1671","(619) 661-1673","pa82@postalannex.com","http://www.postalannex.com/82","32.552853","-116.938345","STREET_ADDRESS: ROOFTOP","United States","US","San Diego County"
"86","PostalAnnex+","","2658 Del Mar Heights Rd","Del Mar","CA","92014-3100","(858) 755-6400","(858) 755-6537","pa86@postalannex.com","http://www.postalannex.com/86","32.950384","-117.2461092","STREET_ADDRESS: ROOFTOP","United States","US","San Diego County"
"89","Parcel Plus","","21010 Southbank St","Sterling","VA","20165-7227","(703) 406-7505","(703) 406-7503","pp89@parcelplus.com","http://www.parcelplus.com/89","39.0345907","-77.3976594","STREET_ADDRESS: ROOFTOP","United States","US","Loudoun County"
"94","PostalAnnex+","Archibald Ranch Town Center","3045 S Archibald Ave Ste H","Ontario","CA","91761-9001","(909) 947-4413","(909) 923-5836","pa94@postalannex.com","http://www.postalannex.com/94","34.018233","-117.5912353","SUBPREMISE: ROOFTOP","United States","US","San Bernardino County"
"97","PostalAnnex+","Clayton Station Shopping Center","5433 Clayton Rd Ste K","Clayton","CA","94517-1140","(925) 673-5246","(925) 673-5238","pa97@postalannex.com","http://www.postalannex.com/97","37.952883","-121.9538092","SUBPREMISE: ROOFTOP","United States","US","Contra Costa County"
"98","PostalAnnex+","Sun Lakes Shopping Center","300 S Highland Springs Ave Ste 6C","Banning","CA","92220-6508","(951) 769-7170","(951) 769-7166","pa98@postalannex.com","http://www.postalannex.com/98","33.9235783","-116.9459899","SUBPREMISE: ROOFTOP","United States","US","Riverside County"
"99","PostalAnnex+","Raleigh Hills West","6663 SW Beaverton Hillsdale Hwy","Portland","OR","97225-1403","(503) 297-6120","(503) 297-7838","pa99@postalannex.com","http://www.postalannex.com/99","45.4877365","-122.7443418","PREMISE: ROOFTOP","United States","US","Washington County"
"102","PostalAnnex+","Menifee Shopping Center","30141 Antelope Rd Ste D","Menifee","CA","92584-8066","(951) 679-2600","(951) 679-1599","pa102@postalannex.com","http://www.postalannex.com/102","33.6831035","-117.1700328","SUBPREMISE: ROOFTOP","United States","US","Riverside County"
"106","PostalAnnex+","Piazza Carmel/Von's Shopping Center","3830 Valley Centre Dr Ste 705","San Diego","CA","92130-3307","(858) 350-1274","(858) 350-1273","pa106@postalannex.com","http://www.postalannex.com/106","32.9398655","-117.2312263","SUBPREMISE: ROOFTOP","United States","US","San Diego County"
"111","PostalAnnex+","Gateway Plaza","39270 Paseo Padre Pkwy","Fremont","CA","94538-1616","(510) 713-8531","(510) 713-8533","pa111@postalannex.com","http://www.postalannex.com/111","37.553354","-121.9784408","STREET_ADDRESS: ROOFTOP","United States","US","Alameda County"
"113","PostalAnnex+","","15732 Los Gatos Blvd","Los Gatos","CA","95032-2504","(408) 356-1236","(408) 356-1296","pa113@postalannex.com","http://www.postalannex.com/113","37.2400497","-121.960045","STREET_ADDRESS: ROOFTOP","United States","US","Santa Clara County"
"116","PostalAnnex+","","16409 SE Division St Ste 216","Portland","OR","97236-1982","(503) 761-7121","(503) 761-1412","pa116@postalannex.com","http://www.postalannex.com/116","45.5055492","-122.4951634","SUBPREMISE: ROOFTOP","United States","US","Multnomah County"
"117","PostalAnnex+","Elkhorn Plaza","5325 Elkhorn Blvd","Sacramento","CA","95842-2526","(916) 349-2444","(916) 349-1620","pa117@postalannex.com","http://www.postalannex.com/117","38.6871384","-121.3405369","STREET_ADDRESS: ROOFTOP","United States","US","Sacramento County"
"121","PostalAnnex+","Crossroads Shopping Center","8001 N Mesa St Ste E","El Paso","TX","79932-1670","(915) 585-0045","(915) 585-0037","pa121@postalannex.com","http://www.postalannex.com/121","31.8400535","-106.5770349","SUBPREMISE: ROOFTOP","United States","US","El Paso County"
"125","PostalAnnex+","","1177 Branham Ln","San Jose","CA","95118-3766","(408) 269-7000","(408) 269-0659","pa125@postalannex.com","http://www.postalannex.com/125","37.2627367","-121.8792791","STREET_ADDRESS: ROOFTOP","United States","US","Santa Clara County"
"128","PostalAnnex+","","1336 N Moorpark Rd","Thousand Oaks","CA","91360-5224","(805) 497-6245","(805) 494-9399","pa128@postalannex.com","http://www.postalannex.com/128","34.1968056","-118.8688727","PREMISE: ROOFTOP","United States","US","Ventura County"
"131","Parcel Plus","","5161 San Felipe St Ste 320","Houston","TX","77056-3640","(713) 623-4848","(713) 623-2389","pp131@parcelplus.com","http://www.parcelplus.com/131","29.7493342","-95.4659542","SUBPREMISE: ROOFTOP","United States","US","Harris County"
"131","PostalAnnex+","","3529 Cannon Rd Ste 2B","Oceanside","CA","92056-4985","(760) 631-2057","(760) 631-4331","pa131@postalannex.com","http://www.postalannex.com/131","33.1729514","-117.2539295","SUBPREMISE: ROOFTOP","United States","US","San Diego County"
"133","PostalAnnex+","","3900 Pelandale Ave Ste 420","Modesto","CA","95356-9104","(209) 545-2301","(209) 545-4555","pa133@postalannex.com","http://www.postalannex.com/133","37.6988994","-121.0675301","SUBPREMISE: ROOFTOP","United States","US","Stanislaus County"
"137","PostalAnnex+","","350 Bay St Ste 100","San Francisco","CA","94133-1998","(415) 772-9022","(415) 772-9023","pa137@postalannex.com","http://www.postalannex.com/137","37.8059079","-122.412709","SUBPREMISE: ROOFTOP","United States","US","San Francisco County"
"138","Parcel Plus","","10900 Research Blvd Ste 160C","Austin","TX","78759-5718","(512) 418-9983","(512) 418-9990","pp138@parcelplus.com","http://www.parcelplus.com/138","30.4016439","-97.747345","SUBPREMISE: ROOFTOP","United States","US","Travis County"
"138","PostalAnnex+","Smart & Final Shopping Center","7107 Broadway","Lemon Grove","CA","91945-1436","(619) 460-4420","(619) 460-4871","pa138@postalannex.com","http://www.postalannex.com/138","32.742166","-117.0449939","STREET_ADDRESS: ROOFTOP","United States","US","San Diego County"
"144","PostalAnnex+","Crossings Shopping Center","3377 Deer Valley Rd","Antioch","CA","94531-6664","(925) 706-0166","(925) 706-0172","pa144@postalannex.com","http://www.postalannex.com/144","37.9874051","-121.7842886","STREET_ADDRESS: ROOFTOP","United States","US","Contra Costa County"
"145","Parcel Plus","","5826 New Territory Blvd","Sugar Land","TX","77479-5948","(281) 565-1515","(281) 565-1517","pp145@parcelplus.com","http://www.parcelplus.com/145","29.5891466","-95.6756049","STREET_ADDRESS: ROOFTOP","United States","US","Fort Bend County"
"146","Parcel Plus","","13121 Louetta Rd","Cypress","TX","77429-5155","(281) 376-0054","(281) 376-0056","pp146@parcelplus.com","http://www.parcelplus.com/146","29.9948224","-95.6210804","STREET_ADDRESS: ROOFTOP","United States","US","Harris County"
"148","PostalAnnex+","Ralph's Carson Plaza","603 E University Dr Ste B","Carson","CA","90746-1971","(310) 538-8285","(310) 538-4869","pa148@postalannex.com","http://www.postalannex.com/148","33.8584746","-118.2656862","SUBPREMISE: ROOFTOP","United States","US","Los Angeles County"
"157","PostalAnnex+","","2588 El Camino Real Ste F","Carlsbad","CA","92008-1212","(760) 729-1115","(760) 729-0427","pa157@postalannex.com","http://www.postalannex.com/157","33.1780875","-117.3254461","SUBPREMISE: ROOFTOP","United States","US","San Diego County"
"158","PostalAnnex+","Ygnacio Plaza","1839 Ygnacio Valley Rd Ste B","Walnut Creek","CA","94598-3214","(925) 937-4142","(925) 937-4645","pa158@postalannex.com","http://www.postalannex.com/158","37.917933","-122.0365056","SUBPREMISE: ROOFTOP","United States","US","Contra Costa County"
"164","PostalAnnex+","Oak Grove Plaza","785 Oak Grove Rd Ste E2","Concord","CA","94518-3617","(925) 687-7151","(925) 687-7154","pa164@postalannex.com","http://www.postalannex.com/164","37.9373419","-122.0256228","PREMISE: ROOFTOP","United States","US","Contra Costa County"
"166","Parcel Plus","","1602 Belle View Blvd","Alexandria","VA","22307-6531","(703) 660-0080","(703) 768-2410","pp166@parcelplus.com","http://www.parcelplus.com/166","38.7750124","-77.060116","STREET_ADDRESS: RANGE_INTERPOLATED","United States","US","Fairfax County"
"168","PostalAnnex+","Montwood Shopping Center","2200 N Yarbrough Dr Ste B","El Paso","TX","79925-6333","(915) 592-4783","(915) 592-4786","pa168@postalannex.com","http://www.postalannex.com/168","31.7736036","-106.3380252","SUBPREMISE: ROOFTOP","United States","US","El Paso County"
"169","Parcel Plus","","1539 S Mason Rd","Katy","TX","77450-4559","(281) 398-4200","(281) 398-1058","pp169@parcelplus.com","http://www.parcelplus.com/169","29.7604309","-95.7507888","STREET_ADDRESS: ROOFTOP","United States","US","Harris County"
"170","PostalAnnex+","Twin Oaks Shopping Center","5737 Kanan Rd","Agoura Hills","CA","91301-1601","(818) 707-9197","(818) 707-9199","pa170@postalannex.com","http://www.postalannex.com/170","34.1555359","-118.7580541","STREET_ADDRESS: ROOFTOP","United States","US","Los Angeles County"
"174","PostalAnnex+","","35 Miller Ave","Mill Valley","CA","94941-1903","(415) 381-1486","(415) 381-1244","pa174@postalannex.com","http://www.postalannex.com/174","37.9051987","-122.5470149","STREET_ADDRESS: ROOFTOP","United States","US","Marin County"
"177","PostalAnnex+","Ralph's","8677 Villa La Jolla Dr","La Jolla","CA","92037-2354","(858) 453-9798","(858) 453-9860","pa177@postalannex.com","http://www.postalannex.com/177","32.8659968","-117.2334252","STREET_ADDRESS: RANGE_INTERPOLATED","United States","US","San Diego County"
"178","PostalAnnex+","Walker Center","2850 SW Cedar Hills Blvd","Beaverton","OR","97005-1354","(503) 641-3917","(503) 641-4584","pa178@postalannex.com","http://www.postalannex.com/178","45.4991761","-122.8060077","STREET_ADDRESS: ROOFTOP","United States","US","Washington County"
"184","PostalAnnex+","Food 4 Less Shopping Center","7710 Hazard Center Dr Ste E","San Diego","CA","92108-4552","(619) 295-8810","(619) 295-8010","pa184@postalannex.com","http://www.postalannex.com/184","32.771151","-117.1559456","SUBPREMISE: ROOFTOP","United States","US","San Diego County"
"186","PostalAnnex+","Von's Center","17100 Bear Valley Rd Ste B","Victorville","CA","92395-5852","(760) 951-7311","(760) 951-8825","pa186@postalannex.com","http://www.postalannex.com/186","34.4720474","-117.2892435","SUBPREMISE: ROOFTOP","United States","US","San Bernardino County"
"188","PostalAnnex+","Eastlake Village Center","2220 Otay Lakes Rd Ste 502","Chula Vista","CA","91915-1009","(619) 656-8484","(619) 656-8486","pa188@postalannex.com","http://www.postalannex.com/188","32.6459803","-116.9681312","SUBPREMISE: ROOFTOP","United States","US","San Diego County"
"190","PostalAnnex+","Barnes-Miller Village","7327 SW Barnes Rd","Portland","OR","97225-6119","(503) 203-8404","(503) 203-8306","pa190@postalannex.com","http://www.postalannex.com/190","45.5161977","-122.7525422","STREET_ADDRESS: ROOFTOP","United States","US","Washington County"
"191","PostalAnnex+","Riverwood Center","8152 SW Hall Blvd","Beaverton","OR","97008-6415","(503) 671-9478","(503) 626-9149","pa191@postalannex.com","http://www.postalannex.com/191","45.4612473","-122.7935781","STREET_ADDRESS: ROOFTOP","United States","US","Washington County"
"195","PostalAnnex+","Cascade Commons","2149 Cascade Ave Ste 106A","Hood River","OR","97031-1087","(541) 386-6122","(541) 386-1654","pa195@postalannex.com","http://www.postalannex.com/195","45.7088522","-121.5339542","SUBPREMISE: ROOFTOP","United States","US","Hood River County"
"196","PostalAnnex+","Fisher's Landing Towncenter","16420 SE McGillivray Blvd Ste 103","Vancouver","WA","98683-3599","(360) 891-2484","(360) 891-2515","pa196@postalannex.com","http://www.postalannex.com/196","45.6064013","-122.5030518","SUBPREMISE: ROOFTOP","United States","US","Clark County"
"201","Parcel Plus","","2503-D N Harrison St","Arlington","VA","22207-1616","(703) 752-1888","(703) 752-1890","pp201@parcelplus.com","http://www.parcelplus.com/201","38.8978017","-77.1389153","STREET_ADDRESS: ROOFTOP","United States","US","Arlington County"
"204","Parcel Plus","","1510 Eldridge Pkwy Ste 110","Houston","TX","77077-1760","(281) 589-6245","(281) 589-6575","pp204@parcelplus.com","http://www.parcelplus.com/204","29.7578051","-95.6266827","SUBPREMISE: ROOFTOP","United States","US","Harris County"
"216","PostalAnnex+","Town & Country Shopping Center","816 West Francis Ave","Spokane","WA","99205-6512","(509) 328-3354","(509) 328-3241","pa216@postalannex.com","http://www.postalannex.com/216","47.7161115","-117.4239246","STREET_ADDRESS: ROOFTOP","United States","US","Spokane County"
"222","Parcel Plus","","402 King Farm Blvd Ste 125","Rockville","MD","20850-5899","(301) 590-0300","(301) 590-0758","pp222@parcelplus.com","http://www.parcelplus.com/222","39.1136842","-77.1722948","SUBPREMISE: ROOFTOP","United States","US","Montgomery County"
"222","PostalAnnex+","Hickory Hollow Kroger Shopping Ct","5331 Mount View Rd","Antioch","TN","37013-2308","(615) 731-8855","(615) 731-5007","pa222@postalannex.com","http://www.postalannex.com/222","36.0490468","-86.6468931","STREET_ADDRESS: ROOFTOP","United States","US","Davidson County"
"223","PostalAnnex+","Oak Hill Center","6705 W Highway 290 Ste 502","Austin","TX","78735-8407","(512) 892-1450","(512) 892-1566","pa223@postalannex.com","http://www.postalannex.com/223","30.235615","-97.8536471","SUBPREMISE: ROOFTOP","United States","US","Travis County"
"225","Parcel Plus","","14432 Bellaire Blvd","Houston","TX","77083-7520","(281) 530-1101","(281) 530-1131","pp225@parcelplus.com","http://www.parcelplus.com/225","29.7051005","-95.6408451","STREET_ADDRESS: ROOFTOP","United States","US","Harris County"
"225","PostalAnnex+","Oswego Town Square","3 Monroe Pkwy Ste P","Lake Oswego","OR","97035-8899","(503) 635-3830","(503) 635-1230","pa225@postalannex.com","http://www.postalannex.com/225","45.4339228","-122.702752","SUBPREMISE: ROOFTOP","United States","US","Multnomah County"
"226","PostalAnnex+","Del Prado Square","530C Alameda del Prado","Novato","CA","94949-6067","(415) 883-2486","(415) 883-2488","pa226@postalannex.com","http://www.postalannex.com/226","38.0657449","-122.539468","PREMISE: ROOFTOP","United States","US","Marin County"
"234","PostalAnnex+","","197 Woodland Pkwy Ste 104","San Marcos","CA","92069-3020","(760) 744-9648","(760) 744-9658","pa234@postalannex.com","http://www.postalannex.com/234","33.141113","-117.138947","SUBPREMISE: ROOFTOP","United States","US","San Diego County"
"236","PostalAnnex+","","212 W Ironwood Dr Ste D","Coeur d' Alene","ID","83814-1403","(208) 666-1823","(208) 666-8982","pa236@postalannex.com","http://www.postalannex.com/236","47.693711","-116.7889858","SUBPREMISE: ROOFTOP","United States","US","Kootenai County"
"241","PostalAnnex+","Rancho San Diego - Kohl's/Ralph's","2514 Jamacha Rd Ste 502","El Cajon","CA","92019-4492","(619) 660-9874","(619) 660-9302","pa241@postalannex.com","http://www.postalannex.com/241","32.7459921","-116.9302021","SUBPREMISE: ROOFTOP","United States","US","San Diego County"
"243","PostalAnnex+","","19510 Van Buren Blvd Ste F3","Riverside","CA","92508-9458","(951) 653-8080","(951) 653-6808","pa243@postalannex.com","http://www.postalannex.com/243","33.8901945","-117.3226858","PREMISE: ROOFTOP","United States","US","Riverside County"
"244","PostalAnnex+","Hoover Market Place","5730 N 1st St Ste 105","Fresno","CA","93710-6251","(559) 447-0744","(559) 447-0745","pa244@postalannex.com","http://www.postalannex.com/244","36.8213841","-119.7711208","SUBPREMISE: ROOFTOP","United States","US","Fresno County"
"244","Parcel Plus","","3710 Lone Tree Way","Antioch","CA","94509-6018","(925) 778-6900","(925) 778-6915","pp244@parcelplus.com","http://www.parcelplus.com/244","37.984343","-121.8063886","STREET_ADDRESS: ROOFTOP","United States","US","Contra Costa County"
"249","PostalAnnex+","","941 Orange Ave","Coronado","CA","92118-2609","(619) 437-1635","(619) 437-1636","pa249@postalannex.com","http://www.postalannex.com/249","32.6864737","-117.1791523","STREET_ADDRESS: ROOFTOP","United States","US","San Diego County"
"250","Parcel Plus","","19266 Coastal Highway Unit 4","Rehoboth Beach","DE","19971-6117","(302) 227-9220","(302) 227-9221","pp250@parcelplus.com","http://www.parcelplus.com/250","38.7243763","-75.1259485","SUBPREMISE: ROOFTOP","United States","US","Sussex County"
"250","PostalAnnex+","","249 W Jackson St","Hayward","CA","94544-1811","(510) 785-3980","(510) 785-3983","pa250@postalannex.com","http://www.postalannex.com/250","37.6517978","-122.0910699","STREET_ADDRESS: ROOFTOP","United States","US","Alameda County"
"253","PostalAnnex+","","5247 Wilson Mills Rd","Richmond Heights","OH","44143-3016","(440) 442-8161","(440) 442-9059","pa253@postalannex.com","http://www.postalannex.com/253","41.5394043","-81.4911958","STREET_ADDRESS: ROOFTOP","United States","US","Cuyahoga County"
"256","Parcel Plus","","8787 Branch Ave","Clinton","MD","20735-2630","(301) 856-2805","(301) 856-0655","pp256@parcelplus.com","http://www.parcelplus.com/256","38.7739095","-76.8869985","STREET_ADDRESS: ROOFTOP","United States","US","Prince George's County"
"257","Parcel Plus","","2875 S Orange Ave Ste 500","Orlando","FL","32806-5455","(407) 872-0533","(407) 872-0273","pp257@parcelplus.com","http://www.parcelplus.com/257","28.5100442","-81.3732389","SUBPREMISE: ROOFTOP","United States","US","Orange County"
"258","PostalAnnex+","Redd Wind Village","910 E Redd Rd Ste K","El Paso","TX","79912-7348","(915) 581-5555","(915) 581-5775","pa258@postalannex.com","http://www.postalannex.com/258","31.862292","-106.5480977","SUBPREMISE: ROOFTOP","United States","US","El Paso County"
"259","PostalAnnex+","","1703 Sudderth Dr","Ruidoso","NM","88345-6114","(575) 257-5606","(575) 257-6655","pa259@postalannex.com","http://www.postalannex.com/259","33.3281101","-105.6621199","STREET_ADDRESS: RANGE_INTERPOLATED","United States","US","Lincoln County"
"261","PostalAnnex+","Superior Grocers Complex","3262 N Garey Ave","Pomona","CA","91767-1308","(909) 392-3789","(909) 392-3729","pa261@postalannex.com","http://www.postalannex.com/261","34.106387","-117.7468715","STREET_ADDRESS: ROOFTOP","United States","US","Los Angeles County"
"270","PostalAnnex+","Glisan Street Station","11954 NE Glisan St","Portland","OR","97220-2143","(503) 261-1575","(503) 261-1598","pa270@postalannex.com","http://www.postalannex.com/270","45.5247266","-122.53934","STREET_ADDRESS: ROOFTOP","United States","US","Multnomah County"
"274","PostalAnnex+","Salmon Creek Fred Meyer","800 NE Tenney Rd Ste 110","Vancouver","WA","98685-2899","(360) 546-5606","(360) 571-5434","pa274@postalannex.com","http://www.postalannex.com/274","45.719062","-122.662495","SUBPREMISE: ROOFTOP","United States","US","Clark County"
"282","PostalAnnex+","","15081 W Whitesbridge Ave","Kerman","CA","93630-1013","(559) 846-4001","(559) 846-4002","pa282@postalannex.com","http://www.postalannex.com/282","36.734131","-120.061538","PREMISE: ROOFTOP","United States","US","Fresno County"
"285","PostalAnnex+","Prairie Shopping Center","9030 N Hess Street","Hayden","ID","83835","(208) 762-0770","(208) 762-9490","pa285@postalannex.com","http://www.postalannex.com/285","47.7538288","-116.7921907","STREET_ADDRESS: ROOFTOP","United States","US","Kootenai County"
"288","PostalAnnex+","Woodranch Shopping Center","543 Country Club Dr Ste B","Simi Valley","CA","93065-7696","(805) 584-0840","(805) 584-3260","pa288@postalannex.com","http://www.postalannex.com/288","34.2541177","-118.8102714","SUBPREMISE: ROOFTOP","United States","US","Ventura County"
"302","PostalAnnex+","","40335 Winchester Rd Ste E","Temecula","CA","92591-5518","(951) 296-0290","(951) 296-0291","pa302@postalannex.com","http://www.postalannex.com/302","33.5331153","-117.1506078","SUBPREMISE: ROOFTOP","United States","US","Riverside County"
"303","PostalAnnex+","Palomar Shopping Center","30520 Rancho California Rd Ste 107","Temecula","CA","92591-3282","(951) 695-1830","(951) 695-1832","pa303@postalannex.com","http://www.postalannex.com/303","33.5094678","-117.1278409","SUBPREMISE: ROOFTOP","United States","US","Riverside County"
"305","PostalAnnex+","Bernal Plaza","117 Bernal Rd Ste 70","San Jose","CA","95119-1375","(408) 629-1796","(408) 629-1804","pa305@postalannex.com","http://www.postalannex.com/305","37.2306574","-121.7753419","SUBPREMISE: ROOFTOP","United States","US","Santa Clara County"
"307","PostalAnnex+","Spanish Springs Shopping Center","1344 Disc Dr","Sparks","NV","89436-0684","(775) 626-6868","(775) 626-6878","pa307@postalannex.com","http://www.postalannex.com/307","39.5778262","-119.7201445","STREET_ADDRESS: ROOFTOP","United States","US","Washoe County"
"324","PostalAnnex+","Wal-Mart Plaza","2075 N Marine Blvd Ste U","Jacksonville","NC","28546-5537","(910) 989-1078","(910) 989-1042","pa324@postalannex.com","http://www.postalannex.com/324","34.7804527","-77.3918319","SUBPREMISE: ROOFTOP","United States","US","Onslow County"
"333","PostalAnnex+","","8765 Spring Cypress Rd Ste L","Spring","TX","77379-3195","(281) 655-4278","(281) 655-0339","pa333@postalannex.com","http://www.postalannex.com/333","30.0323773","-95.5529881","PREMISE: ROOFTOP","United States","US","Harris County"
"338","PostalAnnex+","","1631 NE Broadway St","Portland","OR","97232-1425","(503) 284-6092","(503) 284-6110","pa338@postalannex.com","http://www.postalannex.com/338","45.5352633","-122.6487788","STREET_ADDRESS: ROOFTOP","United States","US","Multnomah County"
"344","PostalAnnex+","","651 S. Walnut Ave Ste D","New Braunfels","TX","78130-5764","(830) 609-7447","(830) 609-7363","pa344@postalannex.com","http://www.postalannex.com/344","29.6890435","-98.1257805","SUBPREMISE: ROOFTOP","United States","US","Comal County"
"364","PostalAnnex+","","40485 Murrieta Hot Springs Rd Ste D","Murrieta","CA","92563-6406","(951) 677-9448","(951) 677-4258","pa364@postalannex.com","http://www.postalannex.com/364","33.55729","-117.1793766","SUBPREMISE: ROOFTOP","United States","US","Riverside County"
"365","PostalAnnex+","Vons","24325 Crenshaw Blvd","Torrance","CA","90505-5349","(310) 326-3498","(310) 326-3104","pa365@postalannex.com","http://www.postalannex.com/365","33.8051799","-118.3305174","STREET_ADDRESS: ROOFTOP","United States","US","Los Angeles County"
"370","PostalAnnex+","Five Forks Shopping Center","2607 Woodruff Rd Ste E","Simpsonville","SC","29681-3625","(864) 288-1171","(864) 288-7701","pa370@postalannex.com","http://www.postalannex.com/370","34.8070441","-82.2293366","SUBPREMISE: ROOFTOP","United States","US","Greenville County"
"371","PostalAnnex+","Cardiff Towne Center","2033 San Elijo Ave","Cardiff by the Sea","CA","92007-1726","(760) 753-4875","(760) 753-4881","pa371@postalannex.com","http://www.postalannex.com/371","33.0221838","-117.2822138","STREET_ADDRESS: ROOFTOP","United States","US","San Diego County"
"374","PostalAnnex+","Albertson's Center","2683 Via de La Valle Ste G","Del Mar","CA","92014-1961","(858) 350-4930","(858) 350-4935","pa374@postalannex.com","http://www.postalannex.com/374","32.9794447","-117.2495746","SUBPREMISE: ROOFTOP","United States","US","San Diego County"
"380","PostalAnnex+","Woodward Pavilion","8839 N Cedar Ave Ste B4","Fresno","CA","93720-1832","(559) 435-5858","(559) 435-5342","pa380@postalannex.com","http://www.postalannex.com/380","36.8644014","-119.7583812","STREET_ADDRESS: ROOFTOP","United States","US","Fresno County"
"387","PostalAnnex+","Branham & Snell Plaza","171 Branham Ln Ste 10","San Jose","CA","95136-2379","(408) 972-9768","(408) 972-5143","pa387@postalannex.com","http://www.postalannex.com/387","37.2671275","-121.8325946","SUBPREMISE: ROOFTOP","United States","US","Santa Clara County"
"389","PostalAnnex+","North Park Plaza","3943 Irvine Blvd","Irvine","CA","92602-2400","(714) 508-1838","(714) 508-1840","pa389@postalannex.com","http://www.postalannex.com/389","33.7241277","-117.7722091","STREET_ADDRESS: ROOFTOP","United States","US","Orange County"
"396","PostalAnnex+","Canyon Creek Plaza","5655 Silver Creek Valley Rd","San Jose","CA","95138-2473","(408) 531-1444","(408) 531-0713","pa396@postalannex.com","http://www.postalannex.com/396","37.2878857","-121.7807405","STREET_ADDRESS: ROOFTOP","United States","US","Santa Clara County"
"397","PostalAnnex+","Plaza Shopping Center","1644 Plaza Way","Walla Walla","WA","99362-4325","(509) 526-5770","(509) 526-5778","pa397@postalannex.com","http://www.postalannex.com/397","46.0479752","-118.3464761","STREET_ADDRESS: ROOFTOP","United States","US","Walla Walla County"
"398","PostalAnnex+","Safeway Fox Creek Marketplace","1610 Pace St Unit 900","Longmont","CO","80504-2241","(720) 494-0200","(720) 494-9305","pa398@postalannex.com","http://www.postalannex.com/398","40.1868858","-105.0732266","SUBPREMISE: ROOFTOP","United States","US","Boulder County"
"400","PostalAnnex+","","33175 Temecula Pkwy Ste A","Temecula","CA","92592-7300","(951) 302-5516","(951) 302-5517","pa400@postalannex.com","http://www.postalannex.com/400","33.4846133","-117.0793041","SUBPREMISE: ROOFTOP","United States","US","Riverside County"
"407","PostalAnnex+","Citrus Plaza","49950 Jefferson St Ste 130","Indio","CA","92201-8810","(760) 771-4244","(760) 771-4844","pa407@postalannex.com","http://www.postalannex.com/407","33.6863971","-116.2671405","SUBPREMISE: ROOFTOP","United States","US","Riverside County"
"414","PostalAnnex+","","16516 El Camino Real","Houston","TX","77062-5723","(281) 480-6245","(281) 990-7107","pa414@postalannex.com","http://www.postalannex.com/414","29.557331","-95.124022","STREET_ADDRESS: ROOFTOP","United States","US","Harris County"
"416","PostalAnnex+","Murray Scholls Town Center","14845 SW Murray Scholls Dr Ste 110","Beaverton","OR","97007-9237","(503) 579-4750","(503) 579-3420","pa416@postalannex.com","http://www.postalannex.com/416","45.4372259","-122.8298368","SUBPREMISE: ROOFTOP","United States","US","Washington County"
"421","PostalAnnex+","","1490 George Dieter Dr Ste A","El Paso","TX","79936-7601","(915) 855-7555","(915) 855-9544","pa421@postalannex.com","http://www.postalannex.com/421","31.7437891","-106.3011295","SUBPREMISE: ROOFTOP","United States","US","El Paso County"
"426","PostalAnnex+","Yucaipa Valley Center","33562 Yucaipa Blvd Ste 4","Yucaipa","CA","92399-2072","(909) 790-5140","(909) 790-6634","pa426@postalannex.com","http://www.postalannex.com/426","34.0347126","-117.0718902","SUBPREMISE: ROOFTOP","United States","US","San Bernardino County"
"427","PostalAnnex+","Vista Palomar Park","3231 Business Park Dr Ste C","Vista","CA","92081-8532","(760) 560-0184","(760) 560-0187","pa427@postalannex.com","http://www.postalannex.com/427","33.1332892","-117.228816","SUBPREMISE: ROOFTOP","United States","US","San Diego County"
"428","PostalAnnex+","Fenton Marketplace","2307 Fenton Pkwy Ste 107","San Diego","CA","92108-4746","(619) 280-2380","(619) 280-2261","pa428@postalannex.com","http://www.postalannex.com/428","32.7803567","-117.1301147","SUBPREMISE: ROOFTOP","United States","US","San Diego County"
"435","PostalAnnex+","","3527 S Federal Way Ste 103","Boise","ID","83705-5228","(208) 384-0777","(208) 384-1277","pa435@postalannex.com","http://www.postalannex.com/435","43.5679411","-116.187463","SUBPREMISE: ROOFTOP","United States","US","Ada County"
"437","PostalAnnex+","Tigard Promenade","15532 SW Pacific Hwy Ste C1B","Tigard","OR","97224-3598","(503) 443-4833","(503) 443-4933","pa437@postalannex.com","http://www.postalannex.com/437","45.407889","-122.7930536","STREET_ADDRESS: ROOFTOP","United States","US","Washington County"
"441","PostalAnnex+","","601 E Palomar St Ste C","Chula Vista","CA","91911-6976","(619) 397-2960","(619) 397-2914","pa441@postalannex.com","http://www.postalannex.com/441","32.6151009","-117.0265969","SUBPREMISE: ROOFTOP","United States","US","San Diego County"
"449","PostalAnnex+","Rivermark Plaza","3964 Rivermark Plz","Santa Clara","CA","95054-4155","(408) 980-9200","(408) 980-9295","pa449@postalannex.com","http://www.postalannex.com/449","37.3948616","-121.9465678","PREMISE: ROOFTOP","United States","US","Santa Clara County"
"450","PostalAnnex+","Bayhill Shopping Center","851 Cherry Ave Ste 27","San Bruno","CA","94066-2954","(650) 873-6593","(650) 873-0263","pa450@postalannex.com","http://www.postalannex.com/450","37.6256759","-122.4265498","SUBPREMISE: ROOFTOP","United States","US","San Mateo County"
"452","PostalAnnex+","Safeway Plaza","34972 Newark Blvd","Newark","CA","94560-1216","(510) 818-9010","(510) 818-9023","pa452@postalannex.com","http://www.postalannex.com/452","37.5514682","-122.0500918","STREET_ADDRESS: ROOFTOP","United States","US","Alameda County"
"453","PostalAnnex+","Market @ Round Rock","110 N Interstate 35, Ste 315","Round Rock","TX","78681-5022","(512) 828-4549","(512) 828-4580","pa453@postalannex.com","http://www.postalannex.com/453","30.509309","-97.6882605","SUBPREMISE: ROOFTOP","United States","US","Williamson County"
"455","PostalAnnex+","Rinconada Hills Shopping Center","1484 Pollard Rd","Los Gatos","CA","95032-1031","(408) 374-9255","(408) 374-9258","pa455@postalannex.com","http://www.postalannex.com/455","37.2639606","-121.9838986","PREMISE: ROOFTOP","United States","US","Santa Clara County"
"457","PostalAnnex+","","4101 Dublin Blvd Ste F","Dublin","CA","94568-4603","(925) 556-2510","(925) 556-2509","pa457@postalannex.com","http://www.postalannex.com/457","37.7064701","-121.8739104","SUBPREMISE: ROOFTOP","United States","US","Alameda County"
"477","PostalAnnex+","","387 Magnolia Ave Ste 103","Corona","CA","92879-3308","(951) 340-3896","(951) 340-3971","pa477@postalannex.com","http://www.postalannex.com/477","33.8547194","-117.5654345","SUBPREMISE: ROOFTOP","United States","US","Riverside County"
"1001","AIM Mail Centers","","26861 Trabuco Rd Ste E","Mission Viejo","CA","92691-3535","(949) 472-4121","(949) 458-7557","aim1@aimmailcenters.com","http://www.aimmailcenters.com/1","33.6214447","-117.6589722","SUBPREMISE: ROOFTOP","United States","US","Orange County"
"1003","AIM Mail Centers","","31441 Santa Margarita Pkwy Ste A","Rancho Santa Margarita","CA","92688-1835","(949) 589-1340","(949) 589-7802","aim3@aimmailcenters.com","http://www.aimmailcenters.com/3","33.6502521","-117.5829659","SUBPREMISE: ROOFTOP","United States","US","Orange County"
"1004","AIM Mail Centers","","2461 Santa Monica Blvd Ste C","Santa Monica","CA","90404-2065","(310) 315-1818","(310) 315-1811","aim4@aimmailcenter.com","http://www.aimmailcenters.com/4","34.0327927","-118.4754587","SUBPREMISE: ROOFTOP","United States","US","Los Angeles County"
"1006","AIM Mail Centers","","9121 Atlanta Ave","Hungtington Beach","CA","92646-6309","(714) 965-7874","(714) 965-7873","aim6@aimmailcenters.com","http://www.aimmailcenters.com/6","33.6581243","-117.9694615","STREET_ADDRESS: ROOFTOP","United States","US","Orange County"
"1010","AIM Mail Centers","","708 Gravenstein Hwy N","Sebastopol","CA","95472-2808","(707) 823-7007","(707) 823-1233","aim10@aimmailcenters.com","http://www.aimmailcenters.com/10","38.4071052","-122.8402003","STREET_ADDRESS: ROOFTOP","United States","US","Sonoma County"
"1018","AIM Mail Centers","","1014 S Westlake Blvd Ste 14","Westlake Village","CA","91361-3133","(805) 495-6229","(805) 495-8839","aim18@aimmailcenters.com","http://www.aimmailcenters.com/18","34.152081","-118.8271652","SUBPREMISE: ROOFTOP","United States","US","Ventura County"
"1019","AIM Mail Centers","","32565 Golden Lantern St Ste B","Dana Point","CA","92629-3261","(949) 443-1192","(949) 443-0375","aim19@aimmailcenters.com","http://www.aimmailcenters.com/19","33.4898504","-117.6995787","SUBPREMISE: ROOFTOP","United States","US","Orange County"
"1020","AIM Mail Centers","","2601 Oakdale Rd Ste H2","Modesto","CA","95355-2256","(209) 571-1077","(209) 571-1079","aim20@aimmailcenters.com","http://www.aimmailcenters.com/20","37.6784353","-120.9581402","PREMISE: ROOFTOP","United States","US","Stanislaus County"
"1023","AIM Mail Centers","","16027 Brookhurst St Ste I","Fountain Valley","CA","92708-1562","(714) 531-7070","(714) 531-7943","aim23@aimmailcenters.com","http://www.aimmailcenters.com/23","33.7299859","-117.955757","SUBPREMISE: ROOFTOP","United States","US","Orange County"
"1024","AIM Mail Centers","","10073 Valley View St","Cypress","CA","90630-4601","(714) 220-0121","(714) 220-1024","aim24@aimmailcenters.com","http://www.aimmailcenters.com/24","33.8155056","-118.0293513","STREET_ADDRESS: ROOFTOP","United States","US","Orange County"
"1026","AIM Mail Centers","","4464 Lone Tree Way","Antioch","CA","94531-7413","(925) 756-7102","(925) 756-7103","aim26@aimmailcenters.com","http://www.aimmailcenters.com/26","37.9656209","-121.7829109","STREET_ADDRESS: ROOFTOP","United States","US","Contra Costa County"
"1028","AIM Mail Centers","","465 Stony Point Rd","Santa Rosa","CA","95401-5969","(707) 526-4008","(707) 526-2102","aim28@aimmailcenter.com","http://www.aimmailcenters.com/28","38.4335618","-122.7438174","STREET_ADDRESS: ROOFTOP","United States","US","Sonoma County"
"1029","AIM Mail Centers","","5267 Warner Ave","Huntington Beach","CA","92649-4079","(714) 377-1333","(714) 377-9666","aim29@aimmailcenters.com","http://www.aimmailcenters.com/29","33.7166234","-118.0373018","STREET_ADDRESS: ROOFTOP","United States","US","Orange County"
"1033","AIM Mail Centers","","1141 Catalina Dr","Livermore","CA","94550-5928","(925) 449-9110","(925) 449-9111","aim33@aimmailcenters.com","http://www.aimmailcenters.com/33","37.6623739","-121.7815134","STREET_ADDRESS: ROOFTOP","United States","US","Alameda County"
"1035","AIM Mail Centers","","30025 Alicia Pkwy","Laguna Niguel","CA","92677-2090","(949) 249-8879","(949) 249-9084","aim35@aimmailcenters.com","http://www.aimmailcenters.com/35","33.527067","-117.717869","STREET_ADDRESS: ROOFTOP","United States","US","Orange County"
"1036","AIM Mail Centers","","11278 Los Alamitos Blvd","Los Alamitos","CA","90720-3958","(562) 799-1414","(562) 799-1415","aim36@aimmailcenters.com","http://www.aimmailcenters.com/36","33.7984242","-118.0707305","PREMISE: ROOFTOP","United States","US","Orange County"
"1038","AIM Mail Centers","","13210 Harbor Blvd","Garden Grove","CA","92843-1737","(714) 539-0949","(714) 539-0560","aim38@aimmailcenters.com","http://www.aimmailcenters.com/38","33.7719371","-117.9189823","STREET_ADDRESS: ROOFTOP","United States","US","Orange County"
"1039","AIM Mail Centers","","24338 El Toro Rd Ste E","Laguna Woods","CA","92637-2776","(949) 768-0450","(949) 768-0470","aim39@aimmailcenters.com","http://www.aimmailcenters.com/39","33.6082942","-117.7316603","SUBPREMISE: ROOFTOP","United States","US","Orange County"
"1042","AIM Mail Centers","","1256 W Lathrop Rd","Manteca","CA","95336-9671","(209) 825-4190","(209) 825-5190","aim42@aimmailcenters.com","http://www.aimmailcenters.com/42","37.8253548","-121.237414","STREET_ADDRESS: ROOFTOP","United States","US","San Joaquin County"
"1044","AIM Mail Centers","","25401 Alicia Pkwy","Laguna Hills","CA","92653","(949) 580-0228","(949) 580-0229","aim44@aimmailcenters.com","http://www.aimmailcenters.com/44","33.5931505","-117.6987383","PREMISE: ROOFTOP","United States","US","Orange County"
"1046","AIM Mail Centers","","1775 E Palm Canyon Dr Ste 110","Palm Springs","CA","92264-1623","(760) 416-3399","(760) 416-3320","aim46@aimmailcenters.com","http://www.aimmailcenters.com/46","33.7998369","-116.5271095","SUBPREMISE: ROOFTOP","United States","US","Riverside County"
"1058","AIM Mail Centers","","5319 University Dr","Irvine","CA","92612-2965","(949) 552-5285","(949) 552-5270","aim58@aimmailcenters.com","http://www.aimmailcenters.com/58","33.6593006","-117.8034929","STREET_ADDRESS: ROOFTOP","United States","US","Orange County"
"1064","AIM Mail Centers","","19051 Goldenwest St Ste 106","Huntington Beach","CA","92648-2156","(714) 500-4916","(714) 500-4917","aim64@aimmailcenters.com","http://www.aimmailcenters.com/64","33.6854154","-118.0077511","SUBPREMISE: ROOFTOP","United States","US","Orange County"
"1067","AIM Mail Centers","","27702 Crown Valley Pkwy Ste D4","Ladera Ranch","CA","92694-0613","(949) 481-6378","(949) 481-6385","aim67@aimmailcenters.com","http://www.aimmailcenters.com/67","33.5633529","-117.6471012","STREET_ADDRESS: ROOFTOP","United States","US","Orange County"
"1069","AIM Mail Centers","","2279 Eagle Glen Pkwy Ste 112","Corona","CA","92883-0790","(951) 817-2566","(951) 817-2569","aim69@aimmailcenters.com","http://www.aimmailcenters.com/69","33.8223076","-117.5221972","SUBPREMISE: ROOFTOP","United States","US","Riverside County"
"1070","AIM Mail Centers","","12112 N Rancho Vistoso Blvd Ste 150","Oro Valley","AZ","85755-1720","(520) 797-2100","(520) 797-2180","aim70@aimmailcenters.com","http://www.aimmailcenters.com/70","32.4263727","-110.9592405","SUBPREMISE: ROOFTOP","United States","US","Pima County"
"1076","AIM Mail Centers","","4848 San Felipe Rd Ste 150","San Jose","CA","95135-1273","(408) 274-4624","(408) 274-3781","aim76@aimmailcenters.com","http://www.aimmailcenters.com/76","37.3006209","-121.77167","SUBPREMISE: ROOFTOP","United States","US","Santa Clara County"
"1079","AIM Mail Centers","","3031 Stanford Ranch Rd Ste 2","Rocklin","CA","95765-5554","(916) 435-3140","(916) 435-9811","aim79@aimmailcenters.com","http://www.aimmailcenters.com/79","38.8161807","-121.2584637","SUBPREMISE: ROOFTOP","United States","US","Placer County"
"1088","AIM Mail Centers","","6789 Quail Hill Pkwy","Irvine","CA","92603-4233","(949) 854-1788","(949) 854-1789","aim88@aimmailcenters.com","http://www.aimmailcenters.com/88","33.6542915","-117.7784172","STREET_ADDRESS: ROOFTOP","United States","US","Orange County"
"1093","AIM Mail Centers","","4414 82nd St Unit 212","Lubbock","TX","79424-3369","(806) 785-0000","(806) 785-0061","aim93@aimmailcenters.com","http://www.aimmailcenters.com/93","33.5204119","-101.9062484","SUBPREMISE: ROOFTOP","United States","US","Lubbock County"
"1104","AIM Mail Centers","","1063 S State Route 157 Ste 2","Edwardsville","IL","62025-3695","(618) 655-1601","(618) 655-1629","aim104@aimmailcenters.com","http://www.aimmailcenters.com/104","38.7896287","-89.9805571","SUBPREMISE: ROOFTOP","United States","US","Madison County"
"1110","AIM Mail Centers","","412 S White St","Athens","TN","37303-4732","(423) 507-9736","(423) 507-9738","aim110@aimmailcenters.com","http://www.aimmailcenters.com/110","35.436413","-84.5904202","STREET_ADDRESS: ROOFTOP","United States","US","McMinn County"
"1114","AIM Mail Centers","","27943 Seco Canyon Rd","Santa Clarita","CA","91350-3872","(661) 263-6327","(661) 263-6328","aim114@aimmailcenters.com","http://www.aimmailcenters.com/114","34.4588789","-118.535012","STREET_ADDRESS: ROOFTOP","United States","US","Los Angeles County"
"1115","AIM Mail Centers","","220 Adams Dr Ste 280","Weatherford","TX","76086-6370","(817) 599-6607","(817) 599-6608","aim115@aimmailcenters.com","http://www.aimmailcenters.com/115","32.7315402","-97.7884457","SUBPREMISE: ROOFTOP","United States","US","Parker County"
"1118","AIM Mail Centers","","1732 Aviation Blvd","Redondo Beach","CA","90278-2810","(310) 406-8620","(310) 406-8630","aim118@aimmailcenters.com","http://www.aimmailcenters.com/118","33.8716714","-118.3812209","PREMISE: ROOFTOP","United States","US","Los Angeles County"
"1119","AIM Mail Centers","","8595 Pelham Rd Ste 400","Greenville","SC","29615-5763","(864) 288-2669","(864) 288-2092","aim119@aimmailcenters.com","http://www.aimmailcenters.com/119","34.8522792","-82.2305603","SUBPREMISE: ROOFTOP","United States","US","Greenville County"
"1125","AIM Mail Centers","","15559 Union Ave Ste 6","Los Gatos","CA","95032-3904","(408) 377-2005","(408) 377-1971","aim125@aimmailcenters.com","http://www.aimmailcenters.com/125","37.2424115","-121.9324693","SUBPREMISE: ROOFTOP","United States","US","Santa Clara County"
"1127","AIM Mail Centers","","1379 Dilworthtown Xing","West Chester","PA","19382-8267","(610) 399-9092","(610) 399-9094","aim127@aimmailcenters.com","http://www.aimmailcenters.com/127","39.9036836","-75.5625484","STREET_ADDRESS: ROOFTOP","United States","US","Chester County"
"1145","AIM Mail Centers","","1590 Rosecrans Ave Ste D","Manhattan Beach","CA","90266-3716","(310) 643-8043","(310) 643-8743","aim145@aimmailcenters.com","http://www.aimmailcenters.com/145","33.9015214","-118.3845025","SUBPREMISE: ROOFTOP","United States","US","Los Angeles County"
"1147","AIM Mail Centers","","168 Highway 274 Ste 90","Lake Wylie","SC","29710-6045","(803) 631-5300","(803) 631-5700","aim147@aimmailcenters.com","http://www.aimmailcenters.com/147","35.1199492","-81.0806594","SUBPREMISE: ROOFTOP","United States","US","York County"
"1153","AIM Mail Centers","Hillcrest Market Place","6300 Grelot Rd Ste G","Mobile","AL","36609-3602","(251) 666-6432","(251) 666-6434","aim153@aimmailcenters.com","http://www.aimmailcenters.com/153","30.6625736","-88.1888478","SUBPREMISE: ROOFTOP","United States","US","Mobile County"
"1154","AIM Mail Centers","","9655 Perkins Rd Ste C","Baton Rouge","LA","70810-1534","(225) 757-8077","(225) 757-8078","aim154@aimmailcenters.com","http://www.aimmailcenters.com/154","30.380202","-91.0987369","SUBPREMISE: ROOFTOP","United States","US","East Baton Rouge Parish"
"1164","AIM Mail Centers","","11875 Pigeon Pass Road","Moreno Valley","CA","92557-6044","(951) 485-4440","(951) 485-4226","aim164@aimmailcenters.com","http://www.aimmailcenters.com/164","33.9476978","-117.2625512","STREET_ADDRESS: ROOFTOP","United States","US","Riverside County"
"1169","AIM Mail Centers","","14925 SW Barrows Rd Unit 109","Beaverton","OR","97007","(503) 747-2278","(503) 747-2372","aim169@aimmailcenters.com","http://www.aimmailcenters.com/169","45.4297969","-122.829827","SUBPREMISE: ROOFTOP","United States","US","Washington County"
"1170","AIM Mail Centers","","1046 Church Rd W Ste 106","Southaven","MS","38671-7140","(662) 393-3464","(662) 393-3463","aim170@aimmailcenters.com","http://www.aimmailcenters.com/170","34.9341591","-90.0083446","SUBPREMISE: ROOFTOP","United States","US","Desoto County"
"1178","AIM Mail Centers","","3511 Del Paso Rd Ste 160","Sacramento","CA","95835-2808","(916) 419-1323","(916) 419-1325","aim178@aimmailcenters.com","http://www.aimmailcenters.com/178","38.6560786","-121.5406965","SUBPREMISE: ROOFTOP","United States","US","Sacramento County"
"1179","AIM Mail Centers","","4120 Dale Rd Ste J8","Modesto","CA","95356-9239","(209) 545-1935","(209) 545-1684","aim179@aimmailcenters.com","http://www.aimmailcenters.com/179","37.6999346","-121.0494134","PREMISE: ROOFTOP","United States","US","Stanislaus County"
"1182","AIM Mail Centers","","2205 W 136th Ave Ste 106","Broomfield","CO","80023-9306","(303) 280-6245","(303) 280-8296","aim182@aimmailcenters.com","http://www.aimmailcenters.com/182","39.9440526","-105.0130171","SUBPREMISE: ROOFTOP","United States","US","Broomfield County"
"2001","PostalAnnex+","","7122 S Sheridan Rd Ste 2","Tulsa","OK","74133-2748","(918) 523-7122","(918) 523-7121","pa2001@postalannex.com","http://www.postalannex.com/2001","36.0598739","-95.9067779","SUBPREMISE: ROOFTOP","United States","US","Tulsa County"
"2002","PostalAnnex+","","1030 S Hutchins St Ste 4","Lodi","CA","95240-5251","(209) 367-4699","(209) 367-4696","pa2002@postalannex.com","http://www.postalannex.com/2002","38.1205636","-121.2786598","SUBPREMISE: ROOFTOP","United States","US","San Joaquin County"
"2003","PostalAnnex+","","1861 W La Habra Blvd","La Habra","CA","90631-5131","(562) 691-2757","(562) 691-2729","pa2003@postalannex.com","http://www.postalannex.com/2003","33.9322304","-117.9667401","STREET_ADDRESS: ROOFTOP","United States","US","Orange County"
"2008","PostalAnnex+","San Bruno Towne Center","1212 El Camino Real Ste H","San Bruno","CA","94066-1312","(650) 871-6251","(650) 871-6278","pa2008@postalannex.com","http://www.postalannex.com/2008","37.6390885","-122.4205366","SUBPREMISE: ROOFTOP","United States","US","San Mateo County"
"2009","PostalAnnex+","Renaissance Center","113 West G St","San Diego","CA","92101-6096","(619) 702-7522","(619) 702-7093","pa2009@postalannex.com","http://www.postalannex.com/2009","32.7123724","-117.1644474","STREET_ADDRESS: ROOFTOP","United States","US","San Diego County"
"2010","PostalAnnex+","Willow Station","1187 N Willow Ave Ste 103","Clovis","CA","93611-4411","(559) 324-7083","(559) 324-0931","pa2010@postalannex.com","http://www.postalannex.com/2010","36.8516251","-119.728004","SUBPREMISE: ROOFTOP","United States","US","Fresno County"
"2013","PostalAnnex+","Border Plaza","641 E San Ysidro Blvd Ste B3","San Ysidro","CA","92173-3129","(619) 690-4401","(619) 690-5224","pa2013@postalannex.com","http://www.postalannex.com/2013","32.5477529","-117.0334975","PREMISE: ROOFTOP","United States","US","San Diego County"
"2014","PostalAnnex+","Super Savers Center","82204 US Highway 111 Ste C","Indio","CA","92201-5689","(760) 775-2318","(760) 775-2319","pa2014@postalannex.com","http://www.postalannex.com/2014","33.7159444","-116.2311503","SUBPREMISE: ROOFTOP","United States","US","Riverside County"
"2017","PostalAnnex+","","2710 Alpine Blvd Ste K","Alpine","CA","91901-2276","(619) 659-8082","(619) 659-8056","pa2017@postalannex.com","http://www.postalannex.com/2017","32.8350831","-116.7552511","SUBPREMISE: ROOFTOP","United States","US","San Diego County"
"2020","PostalAnnex+","Cherry Lane Shopping Center","3313 W Cherry Lane","Meridian","ID","83642-1119","(208) 401-0024","(208) 401-0028","pa2020@postalannex.com","http://www.postalannex.com/2020","43.6181663","-116.4349159","STREET_ADDRESS: ROOFTOP","United States","US","Ada County"
"2021","PostalAnnex+","","10710 Gateway Blvd N Ste B5","El Paso","TX","79924-1741","(915) 821-1212","(915) 821-1211","pa2021@postalannex.com","http://www.postalannex.com/2021","31.9224637","-106.4378173","PREMISE: ROOFTOP","United States","US","El Paso County"
"2024","PostalAnnex+","Novato Fair Shopping Center","926 Diablo Ave A","Novato","CA","94947-4025","(415) 898-3511","(415) 898-3459","pa2024@postalannex.com","http://www.postalannex.com/2024","38.1021487","-122.5713648","SUBPREMISE: ROOFTOP","United States","US","Marin County"
"2030","PostalAnnex+","The Water Tower","5331 SW Macadam Ave Ste 258","Portland","OR","97239-3871","(503) 248-4488","(503) 248-4466","pa2030@postalannex.com","http://www.postalannex.com/2030","45.4844517","-122.6758181","SUBPREMISE: ROOFTOP","United States","US","Multnomah County"
"3002","PostalAnnex+","Wal-Mart / Kohl's Shopping Center","711 Center Dr Ste 105","San Marcos","CA","92069","(760) 741-1112","(760) 741-1020","pa3002@postalannex.com","http://www.postalannex.com/3002","33.1335942","-117.1237231","SUBPREMISE: ROOFTOP","United States","US","San Diego County"
"3009","PostalAnnex+","Portola Village","2150 Portola Ave Ste D","Livermore","CA","94551-1793","(925) 456-2960","(925) 456-2954","pa3009@postalannex.com","http://www.postalannex.com/3009","37.6931626","-121.7737007","SUBPREMISE: ROOFTOP","United States","US","Alameda County"
"3010","PostalAnnex+","","15333 Culver Dr Ste 340","Irvine","CA","92604-3051","(949) 857-6782","(949) 857-2329","pa3010@postalannex.com","http://www.postalannex.com/3010","33.6947085","-117.7984776","SUBPREMISE: ROOFTOP","United States","US","Orange County"
"3011","PostalAnnex+","","30745 Pacific Coast Hwy Ste 21","Malibu","CA","90265-3643","(310) 589-4800","(310) 589-4850","pa3011@postalannex.com","http://www.postalannex.com/3011","34.0311351","-118.8426731","SUBPREMISE: ROOFTOP","United States","US","Los Angeles County"
"3012","PostalAnnex+","","415 Laurel St","San Diego","CA","92101-1632","(619) 232-1832","(619) 232-1450","pa3012@postalannex.com","http://www.postalannex.com/3012","32.7312474","-117.1610093","STREET_ADDRESS: ROOFTOP","United States","US","San Diego County"
"3014","PostalAnnex+","Westlake Village Marketplace","5776 Lindero Canyon Rd Ste D","Westlake Village","CA","91362-6419","(818) 707-2425","(818) 707-0141","pa3014@postalannex.com","http://www.postalannex.com/3014","34.1542922","-118.7943003","SUBPREMISE: ROOFTOP","United States","US","Los Angeles County"
"3015","PostalAnnex+","San Antonio Plaza/SJSU","123 E San Carlos St","San Jose","CA","95112-3680","(408) 975-0893","(408) 975-0958","pa3015@postalannex.com","http://www.postalannex.com/3015","37.3330648","-121.8843834","STREET_ADDRESS: ROOFTOP","United States","US","Santa Clara County"
"3030","PostalAnnex+","","2310 Homestead Rd Ste C1","Los Altos","CA","94024-7302","(408) 481-0580","(408) 481-0680","pa3030@postalannex.com","http://www.postalannex.com/3030","37.3367201","-122.0670837","PREMISE: ROOFTOP","United States","US","Santa Clara County"
"3031","PostalAnnex+","Town & Country Shopping Center","1585 Terrace Way","Santa Rosa","CA","95404-3066","(707) 526-1130","(707) 526-1206","pa3031@postalannex.com","http://www.postalannex.com/3031","38.4545457","-122.7028218","PREMISE: ROOFTOP","United States","US","Sonoma County"
"3032","PostalAnnex+","Vons-Walgreen Centre @ Silver Hawk","29910 Murrieta Hot Springs Rd Ste G","Murrieta","CA","92563-3815","(951) 304-7311","(951) 304-7301","pa3032@postalannex.com","http://www.postalannex.com/3032","33.5532431","-117.1396864","SUBPREMISE: ROOFTOP","United States","US","Riverside County"
"3035","PostalAnnex+","Target Center","27636 Ynez Rd Ste L7","Temecula","CA","92591-4645","(951) 699-7535","(951) 699-5224","pa3035@postalannex.com","http://www.postalannex.com/3035","33.5049498","-117.149287","PREMISE: ROOFTOP","United States","US","Riverside County"
"3037","PostalAnnex+","","3507 W Stetson Ave","Hemet","CA","92545-9740","(951) 652-2300","(951) 652-2230","pa3037@postalannex.com","http://www.postalannex.com/3037","33.7290396","-117.0079356","STREET_ADDRESS: ROOFTOP","United States","US","Riverside County"
"3038","PostalAnnex+","Eagle Promenade","2976 E State St Ste 120","Eagle","ID","83616-6394","(208) 938-2860","(208) 938-2861","pa3038@postalannex.com","http://www.postalannex.com/3038","43.6842857","-116.3176866","SUBPREMISE: ROOFTOP","United States","US","Ada County"
"3043","PostalAnnex+","","30724 Benton Rd Ste C302","Winchester","CA","92596-8470","(951) 926-7333","(951) 926-7339","pa3043@postalannex.com","http://www.postalannex.com/3043","33.5918818","-117.1222008","SUBPREMISE: ROOFTOP","United States","US","Riverside County"
"4005","PostalAnnex+","Cloverdale Marketplace","12672 Limonite Ave Ste 3E","Corona","CA","92880-4208","(951) 898-2131","(951) 898-2133","pa4005@postalannex.com","http://www.postalannex.com/4005","33.974024","-117.5603422","SUBPREMISE: ROOFTOP","United States","US","Riverside County"
"4010","PostalAnnex+","","611 K St Ste B","San Diego","CA","92101-7091","(619) 231-2301","(619) 231-2303","pa4010@postalannex.com","http://www.postalannex.com/4010","32.7081429","-117.1589398","SUBPREMISE: ROOFTOP","United States","US","San Diego County"
"4012","PostalAnnex+","Union Town Center","3472 Research Pkwy Ste 104","Colorado Springs","CO","80920-1066","(719) 282-6699","(719) 282-6703","pa4012@postalannex.com","http://www.postalannex.com/4012","38.9585038","-104.7670501","SUBPREMISE: ROOFTOP","United States","US","El Paso County"
"4013","PostalAnnex+","","1501 San Elijo Rd S Ste 104","San Marcos","CA","92078-2048","(760) 471-4748","(760) 471-4749","pa4013@postalannex.com","http://www.postalannex.com/4013","33.0973975","-117.199971","SUBPREMISE: ROOFTOP","United States","US","San Diego County"
"4014","PostalAnnex+","El Camino Shopping Center","23371 Mulholland Dr","Woodland Hills","CA","91364-2734","(818) 224-2118","(818) 224-2151","pa4014@postalannex.com","http://www.postalannex.com/4014","34.1586326","-118.6344876","STREET_ADDRESS: ROOFTOP","United States","US","Los Angeles County"
"4015","PostalAnnex+","","31938 Temecula Pkwy Ste A","Temecula","CA","92592-6841","(951) 303-8868","(951) 303-8876","pa4015@postalannex.com","http://www.postalannex.com/4015","33.4809299","-117.1008891","SUBPREMISE: ROOFTOP","United States","US","Riverside County"
"4018","PostalAnnex+","Redwood Shores","274 Redwood Shores Pkwy","Redwood City","CA","94065-1173","(650) 622-9094","(650) 622-9049","pa4018@postalannex.com","http://www.postalannex.com/4018","37.5232472","-122.2522796","STREET_ADDRESS: ROOFTOP","United States","US","San Mateo County"
"4019","PostalAnnex+","Perris Towne Centre","75 W Nuevo Road Ste E","Perris","CA","92571-0801","(951) 657-8339","(951) 657-8985","pa4019@postalannex.com","http://www.postalannex.com/4019","33.799686","-117.2275796","SUBPREMISE: ROOFTOP","United States","US","Riverside County"
"4020","PostalAnnex+","Berkley Square","964 E Badillo St","Covina","CA","91724-2950","(626) 966-9300","(626) 966-0700","pa4020@postalannex.com","http://www.postalannex.com/4020","34.0853963","-117.8709223","STREET_ADDRESS: ROOFTOP","United States","US","Los Angeles County"
"4022","PostalAnnex+","Kendall Mall","8835 SW 107th Ave","Miami","FL","33176-1411","(305) 630-9608","(305) 395-4624","pa4022@postalannex.com","http://www.postalannex.com/4022","25.6856982","-80.3640801","STREET_ADDRESS: ROOFTOP","United States","US","Miami-Dade County"
"4033","PostalAnnex+","","13023 NE Hwy 99 Ste 7","Vancouver","WA","98686-2699","(360) 573-3007","(360) 571-8069","pa4033@postalannex.com","http://www.postalannex.com/4033","45.7155286","-122.6493511","SUBPREMISE: ROOFTOP","United States","US","Clark County"
"4034","PostalAnnex+","Torrey Hills Center","4653 Carmel Mountain Rd Ste 308","San Diego","CA","92130-6650","(858) 793-7935","(858) 793-7994","pa4034@postalannex.com","http://www.postalannex.com/4034","32.9207805","-117.2132178","SUBPREMISE: ROOFTOP","United States","US","San Diego County"
"5004","PostalAnnex+","","15954 Jackson Creek Pkwy Ste B","Monument","CO","80132-8532","(719) 487-7333","(719) 487-9922","pa5004@postalannex.com","http://www.postalannex.com/5004","39.0648965","-104.8520308","SUBPREMISE: ROOFTOP","United States","US","El Paso County"
"5005","PostalAnnex+","","1281 N State St Ste A","San Jacinto","CA","92583-6314","(951) 487-9898","(951) 654-6832","pa5005@postalannex.com","http://www.postalannex.com/5005","33.8042714","-116.970582","SUBPREMISE: ROOFTOP","United States","US","Riverside County"
"5006","PostalAnnex+","Homestead Shopping Center","3561 Homestead Rd","Santa Clara","CA","95051-5161","(408) 557-9401","(408) 557-9463","pa5006@postalannex.com","http://www.postalannex.com/5006","37.3387572","-121.9950358","STREET_ADDRESS: ROOFTOP","United States","US","Santa Clara County"
"5007","PostalAnnex+","","2850 Womble Rd Ste 100","San Diego","CA","92106-6156","(619) 222-7257","(619) 222-8880","pa5007@postalannex.com","http://www.postalannex.com/5007","32.735834","-117.2166759","SUBPREMISE: ROOFTOP","United States","US","San Diego County"
"5009","PostalAnnex+","Scotts Valley Junction","5610 Scotts Valley Dr Ste B","Scotts Valley","CA","95066-3476","(831) 440-0400","(831) 440-0410","pa5009@postalannex.com","http://www.postalannex.com/5009","37.0615993","-122.0067648","SUBPREMISE: ROOFTOP","United States","US","Santa Cruz County"
"5012","PostalAnnex+","Warner Plaza","21781 Ventura Blvd","Woodland Hills","CA","91364-1835","(818) 713-2626","(818) 713-2627","pa5012@postalannex.com","http://www.postalannex.com/5012","34.1693201","-118.6020931","STREET_ADDRESS: ROOFTOP","United States","US","Los Angeles County"
"5018","PostalAnnex+","","521 Yopp Rd Ste 214","Jacksonville","NC","28540-3597","(910) 478-9987","(910) 478-9990","pa5018@postalannex.com","http://www.postalannex.com/5018","34.7514309","-77.4623745","SUBPREMISE: ROOFTOP","United States","US","Onslow County"
"5019","PostalAnnex+","Von's/Heritage Village Shopping Center","7426 Cherry Ave Ste 210","Fontana","CA","92336-4263","(909) 355-7328","(909) 355-7329","pa5019@postalannex.com","http://www.postalannex.com/5019","34.1192445","-117.4899429","SUBPREMISE: ROOFTOP","United States","US","San Bernardino County"
"5026","PostalAnnex+","Round Rock Town Center","2051 Gattis School Rd Ste 540","Round Rock","TX","78664-7445","(512) 218-4700","(512) 218-4744","pa5026@postalannex.com","http://www.postalannex.com/5026","30.4947445","-97.6541237","SUBPREMISE: ROOFTOP","United States","US","Williamson County"
"5028","PostalAnnex+","Dewy Meadow Village","411 King George Rd Ste 101","Basking Ridge","NJ","07920-2818","(908) 647-7744","(908) 647-7711","pa5028@postalannex.com","http://www.postalannex.com/5028","40.6545322","-74.5315101","SUBPREMISE: ROOFTOP","United States","US","Somerset County"
"5030","PostalAnnex+","Located in Herndon Place (Next to Save Mart)","6737 N Milburn Ave Ste 160","Fresno","CA","93722-2143","(559) 432-6375","(559) 435-6732","pa5030@postalannex.com","http://www.postalannex.com/5030","36.8352425","-119.8810454","SUBPREMISE: ROOFTOP","United States","US","Fresno County"
"6001","PostalAnnex+","The Marketplace at Palm Desert","78206 Varner Rd Ste D","Palm Desert","CA","92211-4136","(760) 772-4499","(760) 772-4634","pa6001@postalannex.com","http://www.postalannex.com/6001","33.7627405","-116.2993829","SUBPREMISE: ROOFTOP","United States","US","Riverside County"
"6006","PostalAnnex+","Cheyenne Montana Shopping (at Hwy 115 & S. Academy Blvd.)","6510 S Academy Blvd Ste A","Colorado Springs","CO","80906-8691","(719) 576-3470","(719) 576-3468","pa6006@postalannex.com","http://www.postalannex.com/6006","38.7674668","-104.8151076","STREET_ADDRESS: ROOFTOP","United States","US","El Paso County"
"6008","PostalAnnex+","Belair Shopping Center","4010 Foothills Blvd Ste 103","Roseville","CA","95747-7241","(916) 787-6245","(916) 787-6246","pa6008@postalannex.com","http://www.postalannex.com/6008","38.7538904","-121.3111152","SUBPREMISE: ROOFTOP","United States","US","Placer County"
"6011","PostalAnnex+","","83103 Avenue 48 Ste 1B","Coachella","CA","92236-9555","(760) 863-4645","(760) 863-1564","pa6011@postalannex.com","http://www.postalannex.com/6011","33.6988212","-116.2148182","SUBPREMISE: ROOFTOP","United States","US","Riverside County"
"6104","Annex Brands","Sunshine Pack & Ship","1315 N Cass St","Wabash","IN","46992-1029","(260) 563-8797","(260) 563-5538","store-104@sunshinepackandship.com","http://www.sunshinepackandship.com/locations/store104.html","40.8146907","-85.8361938","PREMISE: ROOFTOP","United States","US","Wabash County"
"6113","Annex Brands","Sunshine Pack & Ship","1351 N M 43 Hwy","Hastings","MI","49058-8499","(269) 948-9610","(269) 948-9680","store-113@sunshinepackandship.com","http://www.sunshinepackandship.com/locations/store113.html","42.6730972","-85.2917345","PREMISE: ROOFTOP","United States","US","Barry County"
"6131","PostalAnnex+","","6539 Harrison Ave","Cincinnati","OH","45247-7822","(513) 598-5412","(513) 598-4552","pa6131@postalannex.com","http://www.postalannex.com/6131","39.1937569","-84.6608963","STREET_ADDRESS: ROOFTOP","United States","US","Hamilton County"
"6132","Annex Brands","Sunshine Pack & Ship","1001 Fischer Blvd Ste 3","Toms River","NJ","08753-3818","(732) 573-1700","(732) 573-1701","store-132@sunshinepackandship.com","http://www.sunshinepackandship.com/locations/store132.html","39.9812023","-74.1399764","SUBPREMISE: ROOFTOP","United States","US","Ocean County"
"7004","PostalAnnex+","","1502 Foothill Blvd Ste 103","La Verne","CA","91750-3439","(909) 596-6110","(909) 596-6762","pa7004@postalannex.com","http://www.postalannex.com/7004","34.1158922","-117.7748417","SUBPREMISE: ROOFTOP","United States","US","Los Angeles County"
"7007","PostalAnnex+","","1830 Spring Rd","Vallejo","CA","94591-5555","(707) 648-0605","(707) 980-7656","pa7007@postalannex.com","http://www.postalannex.com/7007","38.1063281","-122.2213956","PREMISE: ROOFTOP","United States","US","Solano County"
"7011","PostalAnnex+","","2211 Rayford Rd Ste 111","Spring","TX","77386-1548","(281) 419-0044","(281) 419-2203","pa7011@postalannex.com","http://www.postalannex.com/7011","30.1244","-95.4084315","SUBPREMISE: ROOFTOP","United States","US","Montgomery County"
"7012","PostalAnnex+","","6001 W Parmer Ln Ste 370","Austin","TX","78727-3908","(512) 331-5855","(512) 331-9357","pa7012@postalannex.com","http://www.postalannex.com/7012","30.4420609","-97.7436017","SUBPREMISE: ROOFTOP","United States","US","Travis County"
"7013","PostalAnnex+","Murphys Corner","1523 132nd St SE Ste C","Everett","WA","98208-7200","(425) 357-0500","(425) 357-0800","pa7013@postalannex.com","http://www.postalannex.com/7013","47.8798697","-122.2094575","SUBPREMISE: ROOFTOP","United States","US","Snohomish County"
"8001","PostalAnnex+","","175 Hutton Ranch Rd Ste 103","Kalispell","MT","59901-2142","(406) 755-4801","(406) 755-4802","pa8001@postalannex.com","http://www.postalannex.com/8001","48.2333314","-114.326934","SUBPREMISE: ROOFTOP","United States","US","Flathead County"
"8003","PostalAnnex+","","6051 Business Center Ct Ste 4","San Diego","CA","92154-6641","(619) 710-0888","(619) 710-8899","pa8003@postalannex.com","http://www.postalannex.com/8003","32.5689873","-117.0045711","SUBPREMISE: ROOFTOP","United States","US","San Diego County"
"8007","PostalAnnex+","","6083 N Figarden Dr","Fresno","CA","93722-3226","(559) 275-1644","(559) 275-3047","pa8007@postalannex.com","http://www.postalannex.com/8007","36.8241467","-119.8715476","STREET_ADDRESS: ROOFTOP","United States","US","Fresno County"
"8008","PostalAnnex+","Bressi Village","2647 Gateway Rd Ste 105","Carlsbad","CA","92009-1757","(760) 579-0044","(760) 579-0104","pa8008@postalannex.com","http://www.postalannex.com/8008","33.1265984","-117.2539601","SUBPREMISE: ROOFTOP","United States","US","San Diego County"
"8009","PostalAnnex+","","1822 E Route 66 Ste A","Glendora","CA","91740-3800","(626) 914-7113","(626) 914-0709","pa8009@postalannex.com","http://www.postalannex.com/8009","34.1275837","-117.8305361","SUBPREMISE: ROOFTOP","United States","US","Los Angeles County"
"8010","PostalAnnex+","","3371 Knickerbocker Rd","San Angelo","TX","76904-6814","(325) 939-0090","(325) 716-1935","pa8010@postalannex.com","http://www.postalannex.com/8010","31.4206251","-100.4675427","STREET_ADDRESS: ROOFTOP","United States","US","Tom Green County"
"8011","PostalAnnex+","","1530 Sun City Blvd Ste 120","Georgetown","TX","78633-5352","(512) 869-8080","(512) 869-2166","pa8011@postalannex.com","http://www.postalannex.com/8011","30.7149781","-97.7217791","SUBPREMISE: ROOFTOP","United States","US","Williamson County"
"9002","PostalAnnex+","Colony Cove III","7250 N Mesa St Ste C","El Paso","TX","79912-3616","(915) 833-7447","(915) 833-7448","pa9002@postalannex.com","http://www.postalannex.com/9002","31.8373284","-106.5566541","SUBPREMISE: ROOFTOP","United States","US","El Paso County"
"9005","PostalAnnex+","","29991 Canyon Hills Rd Ste 1709","Lake Elsinore","CA","92532-2579","(951) 246-1121","(951) 246-1131","pa9005@postalannex.com","http://www.postalannex.com/9005","33.666686","-117.2632028","SUBPREMISE: ROOFTOP","United States","US","Riverside County"
"9006","PostalAnnex+","El Paso Marketplace","12210 Montwood Dr Ste 103","El Paso","TX","79928-1785","(915) 856-7100","(915) 856-7136","pa9006@postalannex.com","http://www.postalannex.com/9006","31.7576972","-106.2647313","SUBPREMISE: ROOFTOP","United States","US","El Paso County"
"10001","PostalAnnex+","","8895 Towne Centre Dr Ste 105","San Diego","CA","92122-5542","(858) 546-1700","(858) 546-1701","pa10001@postalannex.com","http://www.postalannex.com/10001","32.8673271","-117.2063622","SUBPREMISE: ROOFTOP","United States","US","San Diego County"
"10007","PostalAnnex+","Inside True Value Hardware","1441 Main St","Ramona","CA","92065-2128","(760) 789-7849","(760) 789-7891","pa10007@postalannex.com","http://www.postalannex.com/10007","33.0394865","-116.8769026","PREMISE: ROOFTOP","United States","US","San Diego County"
"10009","PostalAnnex+","Balfour Village","3130 Balfour Rd Ste D","Brentwood","CA","94513-5516","(925) 513-1750","(925) 513-1759","pa10009@postalannex.com","http://www.postalannex.com/10009","37.9239801","-121.7232832","SUBPREMISE: ROOFTOP","United States","US","Contra Costa County"
"10010","PostalAnnex+","Lakeside Center","321 N Pass Ave","Burbank","CA","91505-3859","(818) 557-8201","(818) 557-8203","pa10010@postalannex.com","http://www.postalannex.com/10010","34.1553065","-118.3468303","STREET_ADDRESS: ROOFTOP","United States","US","Los Angeles County"
"10011","PostalAnnex+","Sherwood Plaza","3320 Robinhood Rd","Winston Salem","NC","27106","(336) 251-1144","(888) 247-8608","pa10011@postalannex.com","http://www.postalannex.com/10011","36.1145305","-80.3126711","STREET_ADDRESS: ROOFTOP","United States","US","Forsyth County"
"10012","PostalAnnex+","Plum Creek Centre","834 S Perry St Ste F","Castle Rock","CO","80104-1941","(303) 663-6976","(303) 688-6145","pa10012@postalannex.com","http://www.postalannex.com/10012","39.3623571","-104.8599686","SUBPREMISE: ROOFTOP","United States","US","Douglas County"
"10013","PostalAnnex+","Northwood Plaza","2520 N McMullen Booth Rd Ste B","Clearwater","FL","33761-4181","(727) 400-6801","(727) 400-6828","pa10013@postalannex.com","http://www.postalannex.com/10013","28.0138512","-82.71088","SUBPREMISE: ROOFTOP","United States","US","Pinellas County"
"11001","PostalAnnex+","Shoppes at Windmill Place","143 S Randall Rd","Batavia","IL","60510","(630) 389-1700","(630) 389-1690","pa11001@postalannex.com","http://www.postalannex.com/11001","41.8477403","-88.3424272","STREET_ADDRESS: ROOFTOP","United States","US","Kane County"
"11003","PostalAnnex+","","5280 E Beverly Blvd Ste C","Los Angeles","CA","90022-2044","(323) 726-3100","(323) 726-3105","pa11003@postalannex.com","http://www.postalannex.com/11003","34.0305728","-118.1515831","SUBPREMISE: ROOFTOP","United States","US","Los Angeles County"
"11007","PostalAnnex+","Tassjara Crossing","3494 Camino Tassajara","Danville","CA","94506","(925) 964-9346","(925) 964-9356","pa11007@postalannex.com","http://www.postalannex.com/11007","37.7978767","-121.9178451","STREET_ADDRESS: ROOFTOP","United States","US","Contra Costa County"
"11008","PostalAnnex+","","4140 Oceanside Blvd Ste 159","Oceanside","CA","92056","(760) 724-6230","(760) 724-6200","pa11008@postalannex.com","http://www.postalannex.com/11008","33.2076147","-117.2879447","SUBPREMISE: ROOFTOP","United States","US","San Diego County"
"11011","PostalAnnex+","Northpark Shopping Center","2261 Northpark Dr","Kingwood","TX","77339","(281) 312-4355","(281) 312-4366","pa11011@postalannex.com","http://www.postalannex.com/11011","30.0696445","-95.2126833","PREMISE: ROOFTOP","United States","US","Harris County"
"12002","PostalAnnex+","","26100 Newport Rd","Menifee","CA","92584","(951) 301-7070","(951) 301-0069","pa12002@postalannex.com","http://www.postalannex.com/12002","33.6861928","-117.2048198","STREET_ADDRESS: ROOFTOP","United States","US","Riverside County"
"12003","PostalAnnex+","Buellton Shopping Center","270 E Highway 246","Buellton","CA","93427","(805) 688-3694","(805) 688-4622","pa12003@postalannex.com","http://www.postalannex.com/12003","34.6093254","-120.1858767","PREMISE: ROOFTOP","United States","US","Santa Barbara County"
"12004","PostalAnnex+","Huntington Square","6537 S Staples St","Corpus Christi","TX","78413","(361) 992-9323","(361) 992-9329","pa12004@postalannex.com","http://www.postalannex.com/12004","27.6840847","-97.3854337","STREET_ADDRESS: ROOFTOP","United States","US","Nueces County"
"12005","PostalAnnex+","JFK Plaza","14910 Perris Blvd","Moreno Valley","CA","92553","(951) 601-6500","(951) 601-6502","pa12005@postalannex.com","http://www.postalannex.com/12005","33.9044297","-117.2253941","PREMISE: ROOFTOP","United States","US","Riverside County"
"12006","PostalAnnex+","","140 Encinitas Blvd.","Encinitas","CA","92024","(760) 634-1568","","pa12006@postalannex.com","http://www.postalannex.com/12006","33.0499192","-117.2892921","STREET_ADDRESS: ROOFTOP","United States","US","San Diego County"
"12007","PostalAnnex+","Westridge Village","3661 Sunset Ave","Rocky Mount","NC","27804","(252) 443-2225","(252) 443-0766","pa12007@postalannex.com","http://www.postalannex.com/12007","35.9626727","-77.8513091","STREET_ADDRESS: ROOFTOP","United States","US","Nash County"
"12009","PostalAnnex+","Byers Creek Village","112 Argus Ln","Mooresville","NC","28117","(704) 663-1047","(704) 663-0380","pa12009@postalannex.com","http://www.postalannex.com/12009","35.6027722","-80.89454","STREET_ADDRESS: ROOFTOP","United States","US","Iredell County"
"12010","PostalAnnex+","Garden Village Shopping Center","28134 S Western Ave","San Pedro","CA","90732-1248","(310) 732-1841","(310) 831-2875","pa12010@postalannex.com","http://www.postalannex.com/12010","33.7635476","-118.310108","STREET_ADDRESS: ROOFTOP","United States","US","Los Angeles County"
"12011","PostalAnnex+","Evergreen Plaza next to SaveMart","3277 S White Rd","San Jose","CA","95148-4056","(408) 274-1453","(408) 274-1495","pa12011@postalannex.com","http://www.postalannex.com/12011","37.3143495","-121.7942934","STREET_ADDRESS: ROOFTOP","United States","US","Santa Clara County"
"12014","PostalAnnex+","Stonebridge Crossings - Next to Albertsons","6710 Virginia Pkwy","McKinney","TX","75071","(214) 592-0855","(214) 592-0860","pa12014@postalannex.com","http://www.postalannex.com/12014","33.2003631","-96.7063154","PREMISE: ROOFTOP","United States","US","Collin County"
"12015","PostalAnnex+","","805 S Virginia St","Reno","NV","89502","(775) 525-2500","(775) 284-0705","pa12015@postalannex.com","http://www.postalannex.com/12015","39.5167626","-119.8088848","STREET_ADDRESS: ROOFTOP","United States","US","Washoe County"
"12017","PostalAnnex+","","180 Talmadge Rd","Edison","NJ","08817-2860","(732) 902-6460","(732) 902-6459","pa12017@postalannex.com","http://www.postalannex.com/12017","40.536275","-74.396284","PREMISE: ROOFTOP","United States","US","Middlesex County"
"12018","PostalAnnex+","Tennant Station","409 Tennant Station","Morgan Hill","CA","95037-7115","(408) 776-2892","(408) 776-7561","pa12018@postalannex.com","http://www.postalannex.com/12018","37.1134665","-121.6403648","STREET_ADDRESS: ROOFTOP","United States","US","Santa Clara County"
"13001","PostalAnnex+","La Costa Town Square","3451 Via Montebello, Unit 192","Carlsbad","CA","92009-8492","(760) 944-6040","(760) 944-6060","pa13001@postalannex.com","http://postalannex.com/location/carlsbad/13001","33.082454","-117.2310664","SUBPREMISE: ROOFTOP","United States","US","San Diego County"
"13002","PostalAnnex+","Across the Street from Wal-Mart","17860 SE 109th Ave","Summerfield","FL","34491-8911","(352) 693-2773","(352) 693-2806","pa13002@postalannex.com","http://www.postalannex.com/13002","28.9612775","-81.9690872","PREMISE: ROOFTOP","United States","US","Marion County"
"13004","PostalAnnex+","University Village Colorado","5262 N Nevada Ave","Colorado Springs","CO","80918-8717","(719) 593-1084","(719) 593-1055","pa13004@postalannex.com","http://postalannex.com/13004","38.906045","-104.8173757","PREMISE: ROOFTOP","United States","US","El Paso County"
"13007","PostalAnnex+","Ralph's @ Serrano","751 S Weir Canyon Rd","Anaheim","CA","92808-1800","(714) 998-8806","(714) 998-8876","pa13007@postalannex.com","http://www.postalannex.com/13007","33.8608908","-117.7381407","STREET_ADDRESS: ROOFTOP","United States","US","Orange County"
"13009","PostalAnnex+","Las Tiendas de Zaragoza","3590 North Zaragoza Rd Ste B103","El Paso","TX","79938","(915) 921-6420","(915) 921-6425","pa13009@postalannex.com","http://postalannex.com/location/el-paso/13009","31.7955471","-106.2300235","SUBPREMISE: ROOFTOP","United States","US","El Paso County"
"13010","PostalAnnex+","","555 West Country Club Lane","Escondido","CA","92026-1226","(760) 317-5913","(760) 371-5917","pa13010@postalannex.com","http://www.postalannex.com/13010","33.1584155","-117.0999357","PREMISE: ROOFTOP","United States","US","San Diego County"
"14001","PostalAnnex+","Aliso Village Shopping Center","23986 Aliso Creek Rd, Ste A12","Laguna Niguel","CA","92677-3908","(949) 600-7037","(949) 600-7093","pa14001@postalannex.com","http://postalannex.com/14001","33.5554035","-117.7117832","STREET_ADDRESS: ROOFTOP","United States","US","Orange County"
"14003","PostalAnnex+","Bradford - Publix, Cary","12218 Bradford Green Square","Cary","NC","27519","(919) 650-3800","(919) 650-3802","pa14003@postalannex.com","http://postalannex.com/location/cary/14003","35.7937552","-78.8462199","PREMISE: ROOFTOP","United States","US","Wake County"
"14006","PostalAnnex+","Mountain Mall","6475 US Highway 93 S","Whitefish","MT","59937-8265","(406) 862-6245","(406) 862-6266","pa14006@postalannex.com","http://www.postalannex.com/14006","48.3946246","-114.3338914","STREET_ADDRESS: ROOFTOP","United States","US","Flathead County"
"14007","PostalAnnex+","Indio Towne Center","42250 Jackson Street Ste 103","Indio","CA","92203-9762","(760) 347-0808","(760) 347-2828","pa14007@postalannex.com","http://postalannex.com/14007","33.7407701","-116.2160308","SUBPREMISE: ROOFTOP","United States","US","Riverside County"
"14009","PostalAnnex+","Summerwalk Village","5122 Yelm Hwy SE Ste C","Lacy","WA","98503-5037","(360) 455-8763","(360) 456-1927","pa14009@postalannex.com","https://www.postalannex.com/location/lacey/14009","46.9965487","-122.8183955","SUBPREMISE: ROOFTOP","United States","US","Thurston County"
"14010","PostalAnnex+","Woodland Crossing","979 Woodland Pkwy","San Marcos","CA","92069-2282","(760) 737-0800","(760) 737-2679","pa14010@postalannex.com","http://postalannex.com/location/14010","33.1559594","-117.1294967","PREMISE: ROOFTOP","United States","US","San Diego County"
"14011","PostalAnnex+","Shops at Skylake","1728 NE Miami Gardens Dr","North Miami Beach","FL","33179-5301","(305) 948-9701","(305) 948-9703","pa14011@postalannex.com","http://postalannex.com/location/north-miami-beach/14011","25.9445865","-80.1651667","STREET_ADDRESS: ROOFTOP","United States","US","Miami-Dade County"
"14012","PostalAnnex+","","280 W Kagy Blvd, Ste D","Bozeman","MT","59715-6056","(406) 219-2210","(406) 219-2209","pa14012@postalannex.com","http://postalannex.com/location/bozeman/14012","45.660064","-111.0404901","SUBPREMISE: ROOFTOP","United States","US","Gallatin County"
"14013","PostalAnnex+","","1200 Spur Dr Ste 100","Marshfield","MO","65706-2257","(417) 859-3474","(417) 859-2651","pa14013@postalannex.com","http://postalannex.com/14013","37.3382904","-92.9248168","SUBPREMISE: ROOFTOP","United States","US","Webster County"
"14014","PostalAnnex+","Bonita Point Plaza","750 Otay Lakes Road","Chula Vista","CA","91910","(619) 482-0914","(619) 482-0916","pa14014@postalannex.com","https://www.postalannex.com/location/chula-vista/14014","32.6452711","-117.0018468","STREET_ADDRESS: ROOFTOP","United States","US","San Diego County"
"14015","PostalAnnex+","Falcon Town Center","7661 McLaughlin Rd","Falcon","CO","80831-4727","(719) 886-7447","(719) 886-3299","pa14015@postalannex.com","https://www.postalannex.com/location/falcon/14015","38.9411143","-104.6011428","STREET_ADDRESS: ROOFTOP","United States","US","El Paso County"
"14016","PostalAnnex+","","233 Broad St","Bridgewater","MA","02324","(508) 807-1053","(508) 807-4027","pa14016@postalannex.com","https://www.postalannex.com/location/bridgewater/14016","41.9941079","-70.9728814","STREET_ADDRESS: ROOFTOP","United States","US","Plymouth County"
"14018","PostalAnnex+","Doral Commons - Next to Publix","7520 NW 104th Ave","Doral","FL","33178-3374","(786) 245-7721","(786) 245-7719","pa14018@postalannex.com","https://www.postalannex.com/location/doral/14018","25.8421934","-80.3678844","PREMISE: ROOFTOP","United States","US","Miami-Dade County"
"14019","PostalAnnex+","The District Shopping Center","11429 S District Dr Ste 200","South Jordan","UT","84095-6038","(801) 790-1000","(801) 790-7447","pa14019@postalannex.com","http://postalannex.com/location/south-jordan/14019","40.5436387","-111.9810292","SUBPREMISE: ROOFTOP","United States","US","Salt Lake County"
"14022","PostalAnnex+","Placentia Town Center","170 E Yorba Linda Blvd","Placentia","CA","92870-3327","(714) 524-0188","(714) 524-0488","pa14022@postalannex.com","https://www.postalannex.com/location/placentia/14022","33.886147","-117.8636863","STREET_ADDRESS: ROOFTOP","United States","US","Orange County"
"14023","PostalAnnex+","The Landings at Cedar Bluff","9255 Kingston Pike","Knoxville","TN","37922-2318","(865) 221-8846","(865) 221-8856","pa14023@postalannex.com","https://www.postalannex.com/location/knoxville/14023","35.9121489","-84.0899444","PREMISE: ROOFTOP","United States","US","Knox County"
"14024","PostalAnnex+","","2010 El Camino Real","Santa Clara","CA","95050-4051","(408) 247-0139","(408) 247-0160","pa14024@postalannex.com","https://www.postalannex.com/location/santa-clara/14024","37.3501753","-121.9611437","STREET_ADDRESS: ROOFTOP","United States","US","Santa Clara County"
"15002","PostalAnnex+","Rancho Santa Fe Plaza","162 S Rancho Santa Fe Rd Ste E70","Encinitas","CA","92024-6335","(760) 230-2135","(760) 230-2132","pa15002@postalannex.com","https://www.postalannex.com/location/encinitas/15002","33.0356178","-117.2384908","PREMISE: ROOFTOP","United States","US","San Diego County"
"15003","PostalAnnex+","Publix at Laguna Isles","19481 Sheridan St","Pembroke Pines","FL","33332-1653","(754) 217-3109","(945) 637-2609","pa15003@postalannex.com","https://www.postalannex.com/location/pembroke-pines/15003","26.0295958","-80.4088006","STREET_ADDRESS: RANGE_INTERPOLATED","United States","US","Broward County"
"15004","PostalAnnex+","Brenneman Farm Shopping Center","4540 Princess Anne Rd Ste 114","Virginia Beach","VA","23462-7963","(757) 474-1111","(757) 474-1112","pa15004@postalannex.com","https://www.postalannex.com/location/virginia-beach/15004","36.8072367","-76.1323375","SUBPREMISE: ROOFTOP","United States","US",""
"15005","PostalAnnex+","Next to Starbucks","13535 Ventura Blvd Ste C","Sherman Oaks","CA","91423-3891","(818) 788-2387","(818) 788-2366","pa15005@postalannex.com","https://www.postalannex.com/location/sherman-oaks/15005","34.1477653","-118.428167","SUBPREMISE: ROOFTOP","United States","US","Los Angeles County"
"15006","PostalAnnex+","Hunter Plaza","2240 Market Place Blvd Ste 180","Irving","TX","75063-8126","(214) 496-0615","(214) 496-0625","pa15006@postalannex.com","https://www.postalannex.com/location/irving/15006","32.9215051","-96.9757515","SUBPREMISE: ROOFTOP","United States","US","Dallas County"
"15007","PostalAnnex+","","40960 California Oaks Rd","Murrieta","CA","92562-5747","(951) 696-1450","(951) 696-1448","pa15007@postalannex.com","https://www.postalannex.com/location/murrieta/15007","33.5678493","-117.2037684","STREET_ADDRESS: ROOFTOP","United States","US","Riverside County"
"15009","PostalAnnex+","","1171 E Alosta Avenue","Azusa","CA","91702","(626) 771-2340","(626) 771-2350","pa15009@postalannex.com","https://www.postalannex.com/location/azusa/15009","34.129741","-117.8817834","STREET_ADDRESS: ROOFTOP","United States","US","Los Angeles County"
"15011","PostalAnnex+","Two doors down from Verizon","8334 Lincoln Blvd","Los Angeles","CA","90045","(310) 667-6633","(310) 667-6637","pa15011@postalannex.com","https://www.postalannex.com/location/los-angeles/15011","33.9620142","-118.4208056","STREET_ADDRESS: ROOFTOP","United States","US","Los Angeles County"
"15012","PostalAnnex+","Victory Village","4183 Franklin Rd Ste 1B","Murfreesboro","TN","37128-4255","(615) 624-8695","(615) 546-4974","pa15012@postalannex.com","https://www.postalannex.com/location/murfreesboro/15012","35.8420653","-86.4720792","SUBPREMISE: ROOFTOP","United States","US","Rutherford County"
"15016","PostalAnnex+","North Gate Plaza","13395 Voyager Pkwy Ste 130","Colorado Springs","CO","80921","(719) 488-1077","(719) 488-1079","pa15016@postalannex.com","https://www.postalannex.com/location/colorado-springs/15016","39.0259013","-104.8170474","SUBPREMISE: ROOFTOP","United States","US","El Paso County"
"15017","PostalAnnex+","","13203 SE 172nd Ave Ste 166","Happy Valley","OR","97015","(503) 855-5710","(503) 855-5724","pa15017@postalannex.com","https://www.postalannex.com/location/happy-valley/15017","45.4273751","-122.4858142","SUBPREMISE: ROOFTOP","United States","US","Clackamas County"
"15018","PostalAnnex+","Cedar Springs","6844 Bardstown Rd","Louisville","KY","40291-3050","(502) 409-5789","(502) 708-2795","pa15018@postalannex.com","https://www.postalannex.com/location/louisville/15018","38.1465778","-85.5880998","STREET_ADDRESS: ROOFTOP","United States","US","Jefferson County"
"16004","PostalAnnex+","El Monte Center","1049 El Monte Ave Ste C","Mountain View","CA","94040-2399","(650) 383-5561","(650) 209-5859","pa16004@postalannex.com","https://www.postalannex.com/location/mountain-view/16004","37.3899093","-122.0947659","SUBPREMISE: ROOFTOP","United States","US","Santa Clara County"
"16006","PostalAnnex+","","23679 Calabasas Rd.","Calabasas","CA","91302","(818) 591-1097","(818) 591-0390","pa16006@postalannex.com","https://www.postalannex.com/location/calabasas/16006","34.1565542","-118.6436682","STREET_ADDRESS: ROOFTOP","United States","US","Los Angeles County"
"16007","PostalAnnex+","","13300 Victory Blvd","Van Nuys","CA","91401","(818) 453-8895","(818) 453-8079","pa16007@postalannex.com","https://www.postalannex.com/location/van-nuys/16007","34.18634","-118.4227992","STREET_ADDRESS: ROOFTOP","United States","US","Los Angeles County"
"16012","PostalAnnex+","Fort Bend Town Center","10330 Highway 6 Ste D","Missouri City","TX","77459-4741","","","","https://www.postalannex.com/location/missouri-city/16012","29.5296386","-95.510583","SUBPREMISE: ROOFTOP","United States","US","Fort Bend County"
"16013","PostalAnnex+","The HUB Hillcrest Market","1050 University Ave Ste E107","San Diego","CA","92103-3359","(619) 230-5148","(619) 642-0750","hillcrest2@postalannex.com","https://www.postalannex.com/location/san-diego/16013","32.7496125","-117.1546324","SUBPREMISE: ROOFTOP","United States","US","San Diego County"
"0001MI","Navis Pack & Ship","c/o 1053MI","4245 44th St","Grand Rapids","MI","49512","(248) 662-3082","(248) 305-5915","grandrapids@gonavis.com","http://www.gonavis.com/mi0001","42.88411","-85.560573","PREMISE: ROOFTOP","United States","US","Kent County"
"0012NV","Navis Pack & Ship","","6185 S Valley View Blvd Ste L","Las Vegas","NV","89118-3919","(702) 494-9616","(702) 463-5676","lasvegas@gonavis.com","http://www.gonavis.com/nv0012","36.0784026","-115.1939851","SUBPREMISE: ROOFTOP","United States","US","Clark County"
"1001CO","Navis Pack & Ship","","2306 S Colorado Blvd","Denver","CO","80222-5905","(303) 753-0805","(303) 753-1624","co1001@gonavis.com","http://www.gonavis.com/co1001","39.6745301","-104.9405167","STREET_ADDRESS: ROOFTOP","United States","US","Denver County"
"1007CN","Navis Pack & Ship","","10-910 Rowntree Dairy Rd","Woodbridge","ON","L4L 5W5","(905) 264-5984","(905) 264-2570","cn1007@gonavis.com","http://www.gonavis.com/cn1007","43.7816983","-79.5713312","STREET_ADDRESS: ROOFTOP","Canada","CA","York Regional Municipality"
"1007MN","Navis Pack & Ship","","1113 7th St NW","Rochester","MN","55901-1763","(507) 282-3676","(507) 282-5049","mn1007@gonavis.com","http://www.gonavis.com/mn1007","44.0318906","-92.4800569","STREET_ADDRESS: ROOFTOP","United States","US","Olmsted County"
"10099OR","Handle With Care Packaging Store","","6150 SW Arctic Dr","Beaverton","OR","97005-9448","(503) 292-2025","(503) 297-7838","or10099@gopackagingstore.com","http://www.gopackagingstore.com/or10099","45.4753594","-122.778102","STREET_ADDRESS: ROOFTOP","United States","US","Washington County"
"1011CT","Navis Pack & Ship","","540 Grant St","Bridgeport","CT","06610-3233","(203) 335-7447","(203) 368-4220","ct1011@gonavis.com","http://www.gonavis.com/ct1011","41.1883271","-73.1616511","PREMISE: ROOFTOP","United States","US","Fairfield County"
"1013CO","Navis Pack & Ship","","1490 Garden of the Gods Suite D","Colorado Springs","CO","80907","(719) 633-2988","(719) 548-8176","co1013@gonavis.com","http://www.gonavis.com/co1013","38.8985531","-104.8554523","SUBPREMISE: ROOFTOP","United States","US","El Paso County"
"1021TX","Navis Pack & Ship","","9232 Research Blvd","Austin","TX","78758-6802","(512) 997-9674","(512) 997-9675","tx1021@gonavis.com","http://www.gonavis.com/tx1021","30.3772852","-97.7360062","STREET_ADDRESS: ROOFTOP","United States","US","Travis County"
"1027CA","Navis Pack & Ship","","20914 Bake Parkway Ste 104","Lake Forest","CA","92630-2174","(949) 458-3672","(949) 458-3658","ca1027@gonavis.com","http://www.gonavis.com/ca1027","33.6581144","-117.6989371","SUBPREMISE: ROOFTOP","United States","US","Orange County"
"1028CO","Navis Pack & Ship","","5641 E. 56th Ave","Commerce City","CO","80022","(303) 455-8080","(303) 853-4682","CO1028@goNavis.com","http://www.gonavis.com/co1028","39.7995169","-104.9209145","PREMISE: ROOFTOP","United States","US","Adams County"
"1030NC","Navis Pack & Ship","","200 E Arrowhead Dr Ste W4","Charlotte","NC","28213-6466","(704) 399-1036","(704) 399-8843","nc1030@gonavis.com","http://www.gonavis.com/nc1030","35.2698345","-80.7664039","PREMISE: ROOFTOP","United States","US","Mecklenburg County"
"1032UT","Navis Pack & Ship","","2943 Parkway Blvd","Salt Lake City","UT","84119","(801) 487-1036","(801) 487-1038","UT1032@goNavis.com","http://www.gonavis.com/ut1032","40.7117199","-111.9626246","STREET_ADDRESS: ROOFTOP","United States","US","Salt Lake County"
"1041GA","Navis Pack & Ship","","1456 Chattahoochee Ave NW","Atlanta","GA","30318-2832","(404) 355-1871","(404) 420-2666","ga1041@gonavis.com","http://www.gonavis.com/ga1041","33.8067762","-84.4350103","STREET_ADDRESS: ROOFTOP","United States","US","Fulton County"
"1043IL","Navis Pack & Ship","","5024 Chase Ave","Downers Grove","IL","60515-4013","(630) 663-1310","(630) 663-1939","il1043@gonavis.com","http://www.gonavis.com/il1043","41.7944548","-88.041238","PREMISE: ROOFTOP","United States","US","Dupage County"
"1047FL","Navis Pack & Ship","","4811 Bowden Rd","Jacksonville","FL","32216-5904","(904) 880-7676","(904) 880-7787","fl1047@gonavis.com","http://www.gonavis.com/fl1047","30.2653537","-81.6185691","PREMISE: ROOFTOP","United States","US","Duval County"
"1049MO","Navis Pack & Ship","","4 Sunnen Dr Ste 145","Maplewood","MO","63143-3814","(314) 646-0803","(314) 646-0840","mo1049@gonavis.com","http://www.gonavis.com/mo1049","38.6052362","-90.325885","SUBPREMISE: ROOFTOP","United States","US","St Louis County"
"1053MI","Navis Pack & Ship","","22870 Venture Dr Ste A","Novi","MI","48375-4185","(248) 692-0007","(248) 305-5915","mi1053@gonavis.com","http://www.gonavis.com/mi1053","42.455637","-83.4628645","SUBPREMISE: ROOFTOP","United States","US","Oakland County"
